$GPTXT,01,01,02,u-blox ag - www.u-blox.com*50
$GPTXT,01,01,02,ANTARIS ATR0620 HW 00000040*67
$GPTXT,01,01,02,EXT CORE       3.10    Jul 15 2005 13:35:49*7A
$GPTXT,01,01,02,INT EXT0 (RCV) TLH1.0  Jul 15 2005 13:37:27*0D
$GPTXT,01,01,02,QDS 47051700344*18
$GPRMC,153834.73,V,,,,,,,200306,,,N*76
$GPVTG,,,,,,,,,N*30
$GPGGA,153834.73,,,,,0,00,99.99,,,,,,*6A
$GPGSA,A,1,,,,,,,,,,,,,99.99,99.99,99.99*30
$GPGSV,1,1,00*79
$GPGLL,,,,,153834.73,V,N*46
$GPZDA,153834.73,20,03,2006,00,00*6F
$GPTXT,01,01,02,LIC 933B-D9A4-CD26-D9B0-49B3*28
$GPTXT,01,01,02,ANTSUPERV=AC SD PDoS*01
$GPTXT,01,01,02,ANTSTATUS=OK*3B
$GPRMC,153835.73,V,,,,,,,200306,,,N*77
$GPVTG,,,,,,,,,N*30
$GPGGA,153835.73,,,,,0,07,1.15,,,,,,*59
$GPGSA,A,1,23,24,20,04,25,11,01,,,,,,1.88,1.15,1.49*0F
$GPGSV,3,1,11,23,83,193,45,24,69,268,44,20,62,085,42,13,46,226,31*77
$GPGSV,3,2,11,04,31,308,50,25,27,050,48,17,22,248,26,11,21,162,40*75
$GPGSV,3,3,11,01,13,051,38,02,03,319,,02,03,319,*45
$GPGLL,,,,,153835.73,V,N*47
$GPZDA,153835.73,20,03,2006,00,00*6E
$GPRMC,153837.00,V,,,,,,,200306,,,N*71
$GPVTG,,,,,,,,,N*30
$GPGGA,153837.00,,,,,0,07,1.15,,,,,,*5F
$GPGSA,A,1,23,24,20,04,25,11,01,,,,,,1.88,1.15,1.49*0F
$GPGSV,3,1,11,23,83,193,45,24,69,268,43,20,62,085,42,13,46,226,31*70
$GPGSV,3,2,11,04,31,308,50,25,27,050,48,17,22,248,27,11,21,162,40*74
$GPGSV,3,3,11,01,13,051,38,02,03,319,,02,03,319,*45
$GPGLL,,,,,153837.00,V,N*41
$GPZDA,153837.00,20,03,2006,00,00*68
$GPRMC,153838.00,A,4822.11599,N,01430.89029,E,0.145,340.34,200306,,,A*68
$GPVTG,340.34,T,,M,0.145,N,0.269,K,A*30
$GPGGA,153838.00,4822.11599,N,01430.89029,E,1,07,1.15,480.9,M,45.2,M,,*59
$GPGSA,A,3,23,24,20,04,25,11,01,,,,,,1.88,1.15,1.49*0D
$GPGSV,3,1,11,23,83,193,44,24,69,268,43,20,62,085,41,13,46,226,30*73
$GPGSV,3,2,11,04,31,308,50,25,27,050,48,17,22,248,29,11,21,162,40*7A
$GPGSV,3,3,11,01,13,051,38,02,03,319,,02,03,319,*45
$GPGLL,4822.11599,N,01430.89029,E,153838.00,A,A*68
$GPZDA,153838.00,20,03,2006,00,00*67
$GPRMC,153839.00,A,4822.11583,N,01430.89050,E,0.213,332.63,200306,,,A*6B
$GPVTG,332.63,T,,M,0.213,N,0.395,K,A*35
$GPGGA,153839.00,4822.11583,N,01430.89050,E,1,07,1.15,480.9,M,45.2,M,,*5D
$GPGSA,A,3,23,24,20,04,25,11,01,,,,,,1.88,1.15,1.49*0D
$GPGSV,3,1,11,23,83,193,44,24,69,268,43,20,62,085,41,13,46,226,30*73
$GPGSV,3,2,11,04,31,308,50,25,27,050,48,17,22,248,29,11,21,162,40*7A
$GPGSV,3,3,11,01,13,051,38,02,03,319,,02,03,319,*45
$GPGLL,4822.11583,N,01430.89050,E,153839.00,A,A*6C
$GPZDA,153839.00,20,03,2006,00,00*66
$GPRMC,153840.00,A,4822.11558,N,01430.89046,E,0.167,327.53,200306,,,A*63
$GPVTG,327.53,T,,M,0.167,N,0.310,K,A*3F
$GPGGA,153840.00,4822.11558,N,01430.89046,E,1,07,1.15,481.0,M,45.2,M,,*5A
$GPGSA,A,3,23,24,20,04,25,11,01,,,,,,1.88,1.15,1.49*0D
$GPGSV,3,1,11,23,83,193,44,24,69,268,43,20,62,085,41,13,46,226,30*73
$GPGSV,3,2,11,04,31,308,50,25,27,050,48,17,22,248,29,11,21,162,40*7A
$GPGSV,3,3,11,01,13,051,37,02,03,319,,02,03,319,*4A
$GPGLL,4822.11558,N,01430.89046,E,153840.00,A,A*63
$GPZDA,153840.00,20,03,2006,00,00*68
$GPRMC,153841.00,A,4822.11531,N,01430.89035,E,0.240,317.05,200306,,,A*6F
$GPVTG,317.05,T,,M,0.240,N,0.445,K,A*3E
$GPGGA,153841.00,4822.11531,N,01430.89035,E,1,07,1.15,480.9,M,45.2,M,,*58
$GPGSA,A,3,23,24,20,04,25,11,01,,,,,,1.88,1.15,1.49*0D
$GPGSV,3,1,11,23,83,193,44,24,69,268,43,20,62,085,41,13,46,226,30*73
$GPGSV,3,2,11,04,31,308,50,25,27,050,48,17,22,248,28,11,21,162,39*75
$GPGSV,3,3,11,01,13,051,37,02,03,319,,02,03,319,*4A
$GPGLL,4822.11531,N,01430.89035,E,153841.00,A,A*69
$GPZDA,153841.00,20,03,2006,00,00*69
$GPRMC,153842.00,A,4822.11506,N,01430.89016,E,0.185,313.04,200306,,,A*66
$GPVTG,313.04,T,,M,0.185,N,0.342,K,A*31
$GPGGA,153842.00,4822.11506,N,01430.89016,E,1,07,1.15,480.8,M,45.2,M,,*5F
$GPGSA,A,3,23,24,20,04,25,11,01,,,,,,1.88,1.15,1.49*0D
$GPGSV,3,1,11,23,83,193,43,24,69,268,43,20,62,085,41,13,46,226,29*7C
$GPGSV,3,2,11,04,31,308,50,25,27,050,48,17,22,248,29,11,21,162,40*7A
$GPGSV,3,3,11,01,13,051,37,02,03,319,,02,03,319,*4A
$GPGLL,4822.11506,N,01430.89016,E,153842.00,A,A*6F
$GPZDA,153842.00,20,03,2006,00,00*6A
$GPRMC,153843.00,A,4822.11482,N,01430.88986,E,0.384,307.01,200306,,,A*68
$GPVTG,307.01,T,,M,0.384,N,0.712,K,A*33
$GPGGA,153843.00,4822.11482,N,01430.88986,E,1,07,1.15,480.8,M,45.2,M,,*52
$GPGSA,A,3,23,24,20,04,25,11,01,,,,,,1.88,1.15,1.49*0D
$GPGSV,3,1,11,23,83,193,43,24,69,268,43,20,62,085,42,13,46,226,28*7E
$GPGSV,3,2,11,04,31,308,50,25,27,050,48,17,22,248,29,11,21,162,39*74
$GPGSV,3,3,11,01,13,051,37,02,03,319,,02,03,319,*4A
$GPGLL,4822.11482,N,01430.88986,E,153843.00,A,A*62
$GPZDA,153843.00,20,03,2006,00,00*6B
$GPRMC,153844.00,A,4822.11469,N,01430.88957,E,0.217,309.22,200306,,,A*62
$GPVTG,309.22,T,,M,0.217,N,0.402,K,A*35
$GPGGA,153844.00,4822.11469,N,01430.88957,E,1,07,1.15,480.7,M,45.2,M,,*53
$GPGSA,A,3,23,24,20,04,25,11,01,,,,,,1.88,1.15,1.49*0D
$GPGSV,3,1,11,23,83,193,43,24,69,268,43,20,62,085,42,13,46,226,27*71
$GPGSV,3,2,11,04,31,308,50,25,27,050,48,17,22,248,29,11,21,162,40*7A
$GPGSV,3,3,11,01,13,051,37,02,03,319,,02,03,319,*4A
$GPGLL,4822.11469,N,01430.88957,E,153844.00,A,A*6C
$GPZDA,153844.00,20,03,2006,00,00*6C
$GPRMC,153845.00,A,4822.11458,N,01430.88933,E,0.137,308.38,200306,,,A*68
$GPVTG,308.38,T,,M,0.137,N,0.254,K,A*3B
$GPGGA,153845.00,4822.11458,N,01430.88933,E,1,07,1.15,480.5,M,45.2,M,,*50
$GPGSA,A,3,23,24,20,04,25,11,01,,,,,,1.88,1.15,1.49*0D
$GPGSV,3,1,11,23,83,193,43,24,69,268,43,20,62,085,42,13,46,226,27*71
$GPGSV,3,2,11,04,31,308,50,25,27,050,48,17,22,248,29,11,21,162,39*74
$GPGSV,3,3,11,01,13,051,37,02,03,319,,02,03,319,*4A
$GPGLL,4822.11458,N,01430.88933,E,153845.00,A,A*6D
$GPZDA,153845.00,20,03,2006,00,00*6D
$GPRMC,153846.00,A,4822.11450,N,01430.88911,E,0.004,308.38,200306,,,A*62
$GPVTG,308.38,T,,M,0.004,N,0.008,K,A*31
$GPGGA,153846.00,4822.11450,N,01430.88911,E,1,07,1.15,480.3,M,45.2,M,,*5D
$GPGSA,A,3,23,24,20,04,25,11,01,,,,,,1.88,1.15,1.49*0D
$GPGSV,3,1,11,23,83,193,43,24,69,268,43,20,62,085,42,13,46,226,24*72
$GPGSV,3,2,11,04,31,308,50,25,27,050,48,17,22,248,29,11,21,162,39*74
$GPGSV,3,3,11,01,13,051,37,02,03,319,,02,03,319,*4A
$GPGLL,4822.11450,N,01430.88911,E,153846.00,A,A*66
$GPZDA,153846.00,20,03,2006,00,00*6E
$GPRMC,153847.00,A,4822.11443,N,01430.88890,E,0.150,307.53,200306,,,A*6B
$GPVTG,307.53,T,,M,0.150,N,0.278,K,A*36
$GPGGA,153847.00,4822.11443,N,01430.88890,E,1,07,1.15,480.1,M,45.2,M,,*54
$GPGSA,A,3,23,24,20,04,25,11,01,,,,,,1.87,1.15,1.48*03
$GPGSV,3,1,11,23,83,193,42,24,69,268,43,20,62,085,42,13,46,226,24*73
$GPGSV,3,2,11,04,31,308,50,25,27,050,48,17,22,248,29,11,21,162,39*74
$GPGSV,3,3,11,01,13,051,37,02,03,319,,02,03,319,*4A
$GPGLL,4822.11443,N,01430.88890,E,153847.00,A,A*6D
$GPZDA,153847.00,20,03,2006,00,00*6F
$GPRMC,153848.00,A,4822.11433,N,01430.88870,E,0.003,307.53,200306,,,A*6A
$GPVTG,307.53,T,,M,0.003,N,0.006,K,A*3A
$GPGGA,153848.00,4822.11433,N,01430.88870,E,1,07,1.15,479.9,M,45.2,M,,*5C
$GPGSA,A,3,23,24,20,04,25,11,01,,,,,,1.88,1.15,1.49*0D
$GPGSV,3,1,11,23,83,193,43,24,69,268,43,20,62,085,42,13,46,226,23*75
$GPGSV,3,2,11,04,31,308,50,25,27,050,48,17,22,248,29,11,21,162,39*74
$GPGSV,3,3,11,01,13,051,37,02,03,319,,02,03,319,*4A
$GPGLL,4822.11433,N,01430.88870,E,153848.00,A,A*6B
$GPZDA,153848.00,20,03,2006,00,00*60
$GPRMC,153849.00,A,4822.11426,N,01430.88853,E,0.004,307.53,200306,,,A*69
$GPVTG,307.53,T,,M,0.004,N,0.007,K,A*3C
$GPGGA,153849.00,4822.11426,N,01430.88853,E,1,07,1.15,479.6,M,45.2,M,,*57
$GPGSA,A,3,23,24,20,04,25,11,01,,,,,,1.88,1.15,1.48*0C
$GPGSV,3,1,10,23,83,193,43,24,69,268,43,20,62,085,42,13,46,226,23*74
$GPGSV,3,2,10,04,31,308,50,25,27,050,48,17,22,248,29,11,21,162,39*75
$GPGSV,3,3,10,01,13,051,37,02,03,319,*71
$GPGLL,4822.11426,N,01430.88853,E,153849.00,A,A*6F
$GPZDA,153849.00,20,03,2006,00,00*61
$GPRMC,153850.00,A,4822.11419,N,01430.88837,E,0.006,307.53,200306,,,A*6D
$GPVTG,307.53,T,,M,0.006,N,0.010,K,A*38
$GPGGA,153850.00,4822.11419,N,01430.88837,E,1,07,1.15,479.3,M,45.2,M,,*54
$GPGSA,A,3,23,24,20,04,25,11,01,,,,,,1.88,1.15,1.49*0D
$GPGSV,3,1,10,23,83,193,43,24,69,268,42,20,62,085,42,13,46,226,22*74
$GPGSV,3,2,10,04,31,308,50,25,27,050,48,17,22,248,30,11,21,162,39*7D
$GPGSV,3,3,10,01,13,051,37,02,03,319,*71
$GPGLL,4822.11419,N,01430.88837,E,153850.00,A,A*69
$GPZDA,153850.00,20,03,2006,00,00*69
$GPRMC,153851.00,A,4822.11415,N,01430.88824,E,0.002,307.53,200306,,,A*66
$GPVTG,307.53,T,,M,0.002,N,0.003,K,A*3E
$GPGGA,153851.00,4822.11415,N,01430.88824,E,1,07,1.15,479.1,M,45.2,M,,*59
$GPGSA,A,3,23,24,20,04,25,11,01,,,,,,1.87,1.15,1.48*03
$GPGSV,3,1,10,23,83,193,43,24,69,268,42,20,62,085,42,13,46,226,22*74
$GPGSV,3,2,10,04,31,308,50,25,27,050,48,17,22,248,29,11,21,162,39*75
$GPGSV,3,3,10,01,13,051,37,02,03,319,*71
$GPGLL,4822.11415,N,01430.88824,E,153851.00,A,A*66
$GPZDA,153851.00,20,03,2006,00,00*68
$GPRMC,153852.00,A,4822.11409,N,01430.88813,E,0.008,307.53,200306,,,A*66
$GPVTG,307.53,T,,M,0.008,N,0.015,K,A*33
$GPGGA,153852.00,4822.11409,N,01430.88813,E,1,07,1.15,478.8,M,45.2,M,,*5B
$GPGSA,A,3,23,24,20,04,25,11,01,,,,,,1.88,1.15,1.48*0C
$GPGSV,3,1,10,23,83,193,43,24,69,268,42,20,62,085,42,13,46,226,22*74
$GPGSV,3,2,10,04,31,308,50,25,27,050,48,17,22,248,29,11,21,162,39*75
$GPGSV,3,3,10,01,13,051,37,02,03,319,*71
$GPGLL,4822.11409,N,01430.88813,E,153852.00,A,A*6C
$GPZDA,153852.00,20,03,2006,00,00*6B
$GPRMC,153853.00,A,4822.11406,N,01430.88803,E,0.002,307.53,200306,,,A*63
$GPVTG,307.53,T,,M,0.002,N,0.004,K,A*39
$GPGGA,153853.00,4822.11406,N,01430.88803,E,1,07,1.15,478.6,M,45.2,M,,*5A
$GPGSA,A,3,23,24,20,04,25,11,01,,,,,,1.88,1.15,1.48*0C
$GPGSV,3,1,10,23,83,193,43,24,69,268,42,20,62,085,42,13,46,226,21*77
$GPGSV,3,2,10,04,31,308,50,25,27,050,47,17,22,248,29,11,21,162,39*7A
$GPGSV,3,3,10,01,13,051,37,02,03,319,*71
$GPGLL,4822.11406,N,01430.88803,E,153853.00,A,A*63
$GPZDA,153853.00,20,03,2006,00,00*6A
$GPRMC,153854.00,A,4822.11403,N,01430.88795,E,0.011,307.53,200306,,,A*63
$GPVTG,307.53,T,,M,0.011,N,0.021,K,A*3C
$GPGGA,153854.00,4822.11403,N,01430.88795,E,1,07,1.15,478.4,M,45.2,M,,*5A
$GPGSA,A,3,23,24,20,04,25,11,01,,,,,,1.88,1.15,1.48*0C
$GPGSV,3,1,10,23,83,193,43,24,69,268,42,20,62,085,42,13,46,226,22*74
$GPGSV,3,2,10,04,31,308,50,25,27,050,48,17,22,248,29,11,21,162,39*75
$GPGSV,3,3,10,01,13,051,37,02,03,319,*71
$GPGLL,4822.11403,N,01430.88795,E,153854.00,A,A*61
$GPZDA,153854.00,20,03,2006,00,00*6D
$GPRMC,153855.00,A,4822.11399,N,01430.88789,E,0.011,307.53,200306,,,A*6B
$GPVTG,307.53,T,,M,0.011,N,0.020,K,A*3D
$GPGGA,153855.00,4822.11399,N,01430.88789,E,1,07,1.15,478.2,M,45.2,M,,*54
$GPGSA,A,3,23,24,20,04,25,11,01,,,,,,1.88,1.15,1.48*0C
$GPGSV,3,1,10,23,83,193,44,24,69,268,42,20,62,085,42,13,46,226,22*73
$GPGSV,3,2,10,04,31,308,50,25,27,050,48,17,22,248,29,11,21,162,39*75
$GPGSV,3,3,10,01,13,051,37,02,03,319,*71
$GPGLL,4822.11399,N,01430.88789,E,153855.00,A,A*69
$GPZDA,153855.00,20,03,2006,00,00*6C
$GPRMC,153856.00,A,4822.11398,N,01430.88783,E,0.002,307.53,200306,,,A*61
$GPVTG,307.53,T,,M,0.002,N,0.004,K,A*39
$GPGGA,153856.00,4822.11398,N,01430.88783,E,1,07,1.15,478.1,M,45.2,M,,*5F
$GPGSA,A,3,23,24,20,04,25,11,01,,,,,,1.88,1.15,1.48*0C
$GPGSV,3,1,10,23,83,193,44,24,69,268,42,20,62,085,42,13,46,226,23*72
$GPGSV,3,2,10,04,31,308,50,25,27,050,48,17,22,248,29,11,21,162,39*75
$GPGSV,3,3,10,01,13,051,37,02,03,319,*71
$GPGLL,4822.11398,N,01430.88783,E,153856.00,A,A*61
$GPZDA,153856.00,20,03,2006,00,00*6F
$GPRMC,153857.00,A,4822.11398,N,01430.88779,E,0.005,307.53,200306,,,A*62
$GPVTG,307.53,T,,M,0.005,N,0.009,K,A*33
$GPGGA,153857.00,4822.11398,N,01430.88779,E,1,07,1.15,477.9,M,45.2,M,,*5C
$GPGSA,A,3,23,24,20,04,25,11,01,,,,,,1.87,1.15,1.48*03
$GPGSV,3,1,10,23,83,192,44,24,69,268,42,20,62,085,42,13,46,226,23*73
$GPGSV,3,2,10,04,31,308,50,25,27,050,48,17,22,248,29,11,21,162,39*75
$GPGSV,3,3,10,01,13,051,37,02,03,319,*71
$GPGLL,4822.11398,N,01430.88779,E,153857.00,A,A*65
$GPZDA,153857.00,20,03,2006,00,00*6E
$GPRMC,153858.00,A,4822.11398,N,01430.88775,E,0.007,307.53,200306,,,A*63
$GPVTG,307.53,T,,M,0.007,N,0.014,K,A*3D
$GPGGA,153858.00,4822.11398,N,01430.88775,E,1,07,1.15,477.8,M,45.2,M,,*5E
$GPGSA,A,3,23,24,20,04,25,11,01,,,,,,1.87,1.15,1.48*03
$GPGSV,3,1,10,23,83,192,44,24,69,267,42,20,62,085,42,13,46,226,22*7D
$GPGSV,3,2,10,04,31,308,50,25,27,050,48,17,22,248,29,11,21,162,39*75
$GPGSV,3,3,10,01,13,051,37,02,03,319,*71
$GPGLL,4822.11398,N,01430.88775,E,153858.00,A,A*66
$GPZDA,153858.00,20,03,2006,00,00*61
$GPRMC,153859.00,A,4822.11404,N,01430.88783,E,0.007,307.53,200306,,,A*69
$GPVTG,307.53,T,,M,0.007,N,0.012,K,A*3B
$GPGGA,153859.00,4822.11404,N,01430.88783,E,1,07,1.15,477.7,M,45.2,M,,*5B
$GPGSA,A,3,23,24,20,04,25,11,01,,,,,,1.88,1.15,1.49*0D
$GPGSV,3,1,10,23,83,192,43,24,69,267,42,20,62,085,42,13,46,226,21*79
$GPGSV,3,2,10,04,31,308,50,25,27,050,48,17,22,248,28,11,21,162,39*74
$GPGSV,3,3,10,01,13,051,38,02,03,319,*7E
$GPGLL,4822.11404,N,01430.88783,E,153859.00,A,A*6C
$GPZDA,153859.00,20,03,2006,00,00*60
$GPRMC,153900.00,A,4822.11408,N,01430.88789,E,0.002,307.53,200306,,,A*67
$GPVTG,307.53,T,,M,0.002,N,0.004,K,A*39
$GPGGA,153900.00,4822.11408,N,01430.88789,E,1,07,1.15,477.5,M,45.2,M,,*52
$GPGSA,A,3,23,24,20,04,25,11,01,,,,,,1.87,1.15,1.48*03
$GPGSV,3,1,10,23,83,192,43,24,69,267,42,20,62,085,41,13,46,226,20*7B
$GPGSV,3,2,10,04,31,308,50,25,27,050,48,17,22,248,28,11,21,162,39*74
$GPGSV,3,3,10,01,13,051,38,02,03,319,*7E
$GPGLL,4822.11408,N,01430.88789,E,153900.00,A,A*67
$GPZDA,153900.00,20,03,2006,00,00*6D
$GPRMC,153901.00,A,4822.11406,N,01430.88789,E,0.003,307.53,200306,,,A*69
$GPVTG,307.53,T,,M,0.003,N,0.006,K,A*3A
$GPGGA,153901.00,4822.11406,N,01430.88789,E,1,07,1.15,477.5,M,45.2,M,,*5D
$GPGSA,A,3,23,24,20,04,25,11,01,,,,,,1.87,1.15,1.48*03
$GPGSV,3,1,10,23,83,192,43,24,69,267,42,20,62,085,41,13,46,226,20*7B
$GPGSV,3,2,10,04,31,308,50,25,27,050,48,17,22,248,27,11,21,162,39*7B
$GPGSV,3,3,10,01,13,051,37,02,03,319,*71
$GPGLL,4822.11406,N,01430.88789,E,153901.00,A,A*68
$GPZDA,153901.00,20,03,2006,00,00*6C
$GPRMC,153902.00,A,4822.11409,N,01430.88793,E,0.003,307.53,200306,,,A*6E
$GPVTG,307.53,T,,M,0.003,N,0.006,K,A*3A
$GPGGA,153902.00,4822.11409,N,01430.88793,E,1,07,1.15,477.5,M,45.2,M,,*5A
$GPGSA,A,3,23,24,20,04,25,11,01,,,,,,1.87,1.15,1.48*03
$GPGSV,3,1,10,23,83,192,43,24,69,267,42,20,62,085,41,13,46,226,20*7B
$GPGSV,3,2,10,04,31,308,50,25,27,050,48,17,22,248,27,11,21,162,39*7B
$GPGSV,3,3,10,01,13,051,38,02,03,319,*7E
$GPGLL,4822.11409,N,01430.88793,E,153902.00,A,A*6F
$GPZDA,153902.00,20,03,2006,00,00*6F
$GPRMC,153903.00,A,4822.11409,N,01430.88791,E,0.006,307.53,200306,,,A*68
$GPVTG,307.53,T,,M,0.006,N,0.010,K,A*38
$GPGGA,153903.00,4822.11409,N,01430.88791,E,1,07,1.15,477.5,M,45.2,M,,*59
$GPGSA,A,3,23,24,20,04,25,11,01,,,,,,1.87,1.15,1.48*03
$GPGSV,3,1,10,23,83,192,43,24,69,267,41,20,62,085,41,13,46,226,20*78
$GPGSV,3,2,10,04,31,308,50,25,27,050,48,17,22,248,27,11,21,162,39*7B
$GPGSV,3,3,10,01,13,051,37,02,03,319,*71
$GPGLL,4822.11409,N,01430.88791,E,153903.00,A,A*6C
$GPZDA,153903.00,20,03,2006,00,00*6E
$GPRMC,153904.00,A,4822.11412,N,01430.88796,E,0.004,307.53,200306,,,A*60
$GPVTG,307.53,T,,M,0.004,N,0.007,K,A*3C
$GPGGA,153904.00,4822.11412,N,01430.88796,E,1,07,1.15,477.6,M,45.2,M,,*50
$GPGSA,A,3,23,24,20,04,25,11,01,,,,,,1.87,1.15,1.48*03
$GPGSV,3,1,10,23,83,192,43,24,69,267,42,20,62,085,41,13,46,226,21*7A
$GPGSV,3,2,10,04,31,308,50,25,27,050,48,17,22,248,27,11,21,162,39*7B
$GPGSV,3,3,10,01,13,051,38,02,03,319,*7E
$GPGLL,4822.11412,N,01430.88796,E,153904.00,A,A*66
$GPZDA,153904.00,20,03,2006,00,00*69
$GPRMC,153905.00,A,4822.11414,N,01430.88801,E,0.004,307.53,200306,,,A*66
$GPVTG,307.53,T,,M,0.004,N,0.007,K,A*3C
$GPGGA,153905.00,4822.11414,N,01430.88801,E,1,07,1.15,477.6,M,45.2,M,,*56
$GPGSA,A,3,23,24,20,04,25,11,01,,,,,,1.87,1.15,1.48*03
$GPGSV,3,1,10,23,83,192,43,24,69,267,41,20,62,085,41,13,46,226,22*7A
$GPGSV,3,2,10,04,31,308,50,25,27,050,48,17,22,248,27,11,21,162,39*7B
$GPGSV,3,3,10,01,13,051,38,02,03,319,*7E
$GPGLL,4822.11414,N,01430.88801,E,153905.00,A,A*60
$GPZDA,153905.00,20,03,2006,00,00*68
$GPRMC,153906.00,A,4822.11417,N,01430.88807,E,0.007,307.53,200306,,,A*63
$GPVTG,307.53,T,,M,0.007,N,0.013,K,A*3A
$GPGGA,153906.00,4822.11417,N,01430.88807,E,1,07,1.15,477.6,M,45.2,M,,*50
$GPGSA,A,3,23,24,20,04,25,11,01,,,,,,1.87,1.15,1.48*03
$GPGSV,3,1,10,23,83,192,42,24,69,267,41,20,62,085,41,13,46,226,23*7A
$GPGSV,3,2,10,04,31,308,50,25,27,050,48,17,22,248,27,11,21,162,39*7B
$GPGSV,3,3,10,01,13,051,38,02,03,319,*7E
$GPGLL,4822.11417,N,01430.88807,E,153906.00,A,A*66
$GPZDA,153906.00,20,03,2006,00,00*6B
$GPRMC,153907.00,A,4822.11418,N,01430.88810,E,0.003,307.53,200306,,,A*6F
$GPVTG,307.53,T,,M,0.003,N,0.006,K,A*3A
$GPGGA,153907.00,4822.11418,N,01430.88810,E,1,07,1.15,477.7,M,45.2,M,,*59
$GPGSA,A,3,23,24,20,04,25,11,01,,,,,,1.87,1.15,1.48*03
$GPGSV,3,1,10,23,83,192,42,24,69,267,41,20,62,085,41,13,46,226,23*7A
$GPGSV,3,2,10,04,31,308,50,25,27,050,48,17,22,248,27,11,21,162,39*7B
$GPGSV,3,3,10,01,13,051,38,02,03,319,*7E
$GPGLL,4822.11418,N,01430.88810,E,153907.00,A,A*6E
$GPZDA,153907.00,20,03,2006,00,00*6A
$GPRMC,153908.00,A,4822.11419,N,01430.88815,E,0.005,307.53,200306,,,A*62
$GPVTG,307.53,T,,M,0.005,N,0.010,K,A*3B
$GPGGA,153908.00,4822.11419,N,01430.88815,E,1,07,1.15,477.8,M,45.2,M,,*5D
$GPGSA,A,3,23,24,20,04,25,11,01,,,,,,1.87,1.15,1.48*03
$GPGSV,3,1,10,23,83,192,41,24,69,267,41,20,62,085,41,13,46,226,23*79
$GPGSV,3,2,10,04,31,308,50,25,27,050,48,17,22,248,27,11,21,162,39*7B
$GPGSV,3,3,10,01,13,051,38,02,03,319,*7E
$GPGLL,4822.11419,N,01430.88815,E,153908.00,A,A*65
$GPZDA,153908.00,20,03,2006,00,00*65
$GPRMC,153909.00,A,4822.11422,N,01430.88820,E,0.004,307.53,200306,,,A*6C
$GPVTG,307.53,T,,M,0.004,N,0.008,K,A*33
$GPGGA,153909.00,4822.11422,N,01430.88820,E,1,07,1.15,477.9,M,45.2,M,,*53
$GPGSA,A,3,23,24,20,04,25,11,01,,,,,,1.87,1.15,1.48*03
$GPGSV,3,1,10,23,83,192,42,24,69,267,41,20,62,085,41,13,46,226,24*7D
$GPGSV,3,2,10,04,31,308,50,25,27,050,48,17,22,248,27,11,21,162,39*7B
$GPGSV,3,3,10,01,13,051,38,02,03,319,*7E
$GPGLL,4822.11422,N,01430.88820,E,153909.00,A,A*6A
$GPZDA,153909.00,20,03,2006,00,00*64
$GPRMC,153910.00,A,4822.11424,N,01430.88821,E,0.007,307.53,200306,,,A*60
$GPVTG,307.53,T,,M,0.007,N,0.013,K,A*3A
$GPGGA,153910.00,4822.11424,N,01430.88821,E,1,07,1.15,478.0,M,45.2,M,,*5A
$GPGSA,A,3,23,24,20,04,25,11,01,,,,,,1.87,1.15,1.48*03
$GPGSV,3,1,10,23,83,192,41,24,69,267,41,20,62,085,41,13,46,226,24*7E
$GPGSV,3,2,10,04,31,308,50,25,27,050,48,17,22,248,28,11,21,162,39*74
$GPGSV,3,3,10,01,13,051,38,02,03,319,*7E
$GPGLL,4822.11424,N,01430.88821,E,153910.00,A,A*65
$GPZDA,153910.00,20,03,2006,00,00*6C
$GPRMC,153911.00,A,4822.11423,N,01430.88822,E,0.009,307.53,200306,,,A*6B
$GPVTG,307.53,T,,M,0.009,N,0.017,K,A*30
$GPGGA,153911.00,4822.11423,N,01430.88822,E,1,07,1.15,478.0,M,45.2,M,,*5F
$GPGSA,A,3,23,24,20,04,25,11,01,,,,,,1.87,1.15,1.48*03
$GPGSV,3,1,10,23,83,192,41,24,69,267,41,20,62,085,41,13,46,226,24*7E
$GPGSV,3,2,10,04,31,308,50,25,27,050,48,17,22,248,27,11,21,162,39*7B
$GPGSV,3,3,10,01,13,051,38,02,03,319,*7E
$GPGLL,4822.11423,N,01430.88822,E,153911.00,A,A*60
$GPZDA,153911.00,20,03,2006,00,00*6D
$GPRMC,153912.00,A,4822.11422,N,01430.88820,E,0.002,307.53,200306,,,A*60
$GPVTG,307.53,T,,M,0.002,N,0.004,K,A*39
$GPGGA,153912.00,4822.11422,N,01430.88820,E,1,07,1.15,478.1,M,45.2,M,,*5E
$GPGSA,A,3,23,24,20,04,25,11,01,,,,,,1.88,1.15,1.48*0C
$GPGSV,3,1,10,23,83,192,41,24,69,267,41,20,62,085,41,13,46,226,24*7E
$GPGSV,3,2,10,04,31,308,50,25,27,050,48,17,22,248,28,11,21,162,39*74
$GPGSV,3,3,10,01,13,051,38,02,03,319,*7E
$GPGLL,4822.11422,N,01430.88820,E,153912.00,A,A*60
$GPZDA,153912.00,20,03,2006,00,00*6E
$GPRMC,153913.00,A,4822.11423,N,01430.88816,E,0.002,307.53,200306,,,A*65
$GPVTG,307.53,T,,M,0.002,N,0.004,K,A*39
$GPGGA,153913.00,4822.11423,N,01430.88816,E,1,07,1.15,478.1,M,45.2,M,,*5B
$GPGSA,A,3,23,24,20,04,25,11,01,,,,,,1.87,1.15,1.48*03
$GPGSV,3,1,10,23,83,192,41,24,69,267,40,20,62,085,42,13,46,226,24*7C
$GPGSV,3,2,10,04,31,308,50,25,27,050,48,17,22,248,28,11,21,162,39*74
$GPGSV,3,3,10,01,13,051,38,02,03,319,*7E
$GPGLL,4822.11423,N,01430.88816,E,153913.00,A,A*65
$GPZDA,153913.00,20,03,2006,00,00*6F
$GPRMC,153914.00,A,4822.11423,N,01430.88812,E,0.006,307.53,200306,,,A*62
$GPVTG,307.53,T,,M,0.006,N,0.011,K,A*39
$GPGGA,153914.00,4822.11423,N,01430.88812,E,1,07,1.15,478.2,M,45.2,M,,*5B
$GPGSA,A,3,23,24,20,04,25,11,01,,,,,,1.87,1.15,1.48*03
$GPGSV,3,1,10,23,83,192,41,24,69,267,40,20,62,085,42,13,46,226,23*7B
$GPGSV,3,2,10,04,31,308,50,25,27,050,48,17,22,248,28,11,21,162,38*75
$GPGSV,3,3,10,01,13,051,38,02,03,319,*7E
$GPGLL,4822.11423,N,01430.88812,E,153914.00,A,A*66
$GPZDA,153914.00,20,03,2006,00,00*68
$GPRMC,153915.00,A,4822.11423,N,01430.88804,E,0.010,307.53,200306,,,A*63
$GPVTG,307.53,T,,M,0.010,N,0.019,K,A*36
$GPGGA,153915.00,4822.11423,N,01430.88804,E,1,07,1.15,478.3,M,45.2,M,,*5C
$GPGSA,A,3,23,24,20,04,25,11,01,,,,,,1.87,1.15,1.48*03
$GPGSV,3,1,10,23,83,192,40,24,69,267,40,20,62,085,42,13,46,226,23*7A
$GPGSV,3,2,10,04,31,308,50,25,27,050,48,17,22,248,28,11,21,162,39*74
$GPGSV,3,3,10,01,13,051,38,02,03,319,*7E
$GPGLL,4822.11423,N,01430.88804,E,153915.00,A,A*60
$GPZDA,153915.00,20,03,2006,00,00*69
$GPRMC,153916.00,A,4822.11421,N,01430.88795,E,0.010,307.53,200306,,,A*65
$GPVTG,307.53,T,,M,0.010,N,0.018,K,A*37
$GPGGA,153916.00,4822.11421,N,01430.88795,E,1,07,1.15,478.4,M,45.2,M,,*5D
$GPGSA,A,3,23,24,20,04,25,11,01,,,,,,1.87,1.15,1.48*03
$GPGSV,3,1,10,23,83,192,40,24,69,267,40,20,62,085,42,13,46,226,23*7A
$GPGSV,3,2,10,04,31,308,50,25,27,050,48,17,22,248,27,11,21,162,39*7B
$GPGSV,3,3,10,01,13,051,37,02,03,319,*71
$GPGLL,4822.11421,N,01430.88795,E,153916.00,A,A*66
$GPZDA,153916.00,20,03,2006,00,00*6A
$GPRMC,153917.00,A,4822.11419,N,01430.88784,E,0.010,307.53,200306,,,A*6F
$GPVTG,307.53,T,,M,0.010,N,0.018,K,A*37
$GPGGA,153917.00,4822.11419,N,01430.88784,E,1,07,1.15,478.5,M,45.2,M,,*56
$GPGSA,A,3,23,24,20,04,25,11,01,,,,,,1.87,1.15,1.48*03
$GPGSV,3,1,10,23,83,192,40,24,69,267,40,20,62,085,42,13,46,226,23*7A
$GPGSV,3,2,10,04,31,308,50,25,27,050,48,17,22,248,27,11,21,162,38*7A
$GPGSV,3,3,10,01,13,051,37,02,03,319,*71
$GPGLL,4822.11419,N,01430.88784,E,153917.00,A,A*6C
$GPZDA,153917.00,20,03,2006,00,00*6B
$GPRMC,153918.00,A,4822.11414,N,01430.88773,E,0.004,307.53,200306,,,A*60
$GPVTG,307.53,T,,M,0.004,N,0.008,K,A*33
$GPGGA,153918.00,4822.11414,N,01430.88773,E,1,07,1.15,478.7,M,45.2,M,,*5E
$GPGSA,A,3,23,24,20,04,25,11,01,,,,,,1.87,1.15,1.48*03
$GPGSV,3,1,10,23,83,192,40,24,69,267,39,20,62,085,43,13,46,226,23*75
$GPGSV,3,2,10,04,31,308,50,25,27,050,48,17,22,248,27,11,21,162,38*7A
$GPGSV,3,3,10,01,13,051,37,02,03,319,*71
$GPGLL,4822.11414,N,01430.88773,E,153918.00,A,A*66
$GPZDA,153918.00,20,03,2006,00,00*64
$GPRMC,153919.00,A,4822.11409,N,01430.88761,E,0.003,307.53,200306,,,A*69
$GPVTG,307.53,T,,M,0.003,N,0.005,K,A*39
$GPGGA,153919.00,4822.11409,N,01430.88761,E,1,07,1.15,478.8,M,45.2,M,,*5F
$GPGSA,A,3,23,24,20,04,25,11,01,,,,,,1.87,1.15,1.48*03
$GPGSV,3,1,10,23,83,192,40,24,69,267,39,20,62,085,43,13,46,226,24*72
$GPGSV,3,2,10,04,31,308,50,25,27,050,48,17,22,248,26,11,21,162,38*7B
$GPGSV,3,3,10,01,13,051,37,02,03,319,*71
$GPGLL,4822.11409,N,01430.88761,E,153919.00,A,A*68
$GPZDA,153919.00,20,03,2006,00,00*65
$GPRMC,153920.00,A,4822.11404,N,01430.88748,E,0.005,307.53,200306,,,A*63
$GPVTG,307.53,T,,M,0.005,N,0.009,K,A*33
$GPGGA,153920.00,4822.11404,N,01430.88748,E,1,07,1.15,478.9,M,45.2,M,,*52
$GPGSA,A,3,23,24,20,04,25,11,01,,,,,,1.87,1.15,1.48*03
$GPGSV,3,1,10,23,83,192,40,24,69,267,39,20,62,085,43,13,46,226,24*72
$GPGSV,3,2,10,04,31,308,50,25,27,050,48,17,22,248,27,11,21,162,39*7B
$GPGSV,3,3,10,01,13,051,37,02,03,319,*71
$GPGLL,4822.11404,N,01430.88748,E,153920.00,A,A*64
$GPZDA,153920.00,20,03,2006,00,00*6F
$GPRMC,153921.00,A,4822.11396,N,01430.88732,E,0.009,307.53,200306,,,A*6F
$GPVTG,307.53,T,,M,0.009,N,0.016,K,A*31
$GPGGA,153921.00,4822.11396,N,01430.88732,E,1,07,1.15,479.0,M,45.2,M,,*5A
$GPGSA,A,3,23,24,20,04,25,11,01,,,,,,1.87,1.15,1.48*03
$GPGSV,3,1,10,23,83,192,40,24,69,267,39,20,62,085,44,13,46,226,25*74
$GPGSV,3,2,10,04,31,308,51,25,27,050,48,17,22,248,27,11,21,162,38*7B
$GPGSV,3,3,10,01,13,051,37,02,03,319,*71
$GPGLL,4822.11396,N,01430.88732,E,153921.00,A,A*64
$GPZDA,153921.00,20,03,2006,00,00*6E
$GPRMC,153922.00,A,4822.11394,N,01430.88717,E,0.001,307.53,200306,,,A*61
$GPVTG,307.53,T,,M,0.001,N,0.002,K,A*3C
$GPGGA,153922.00,4822.11394,N,01430.88717,E,1,07,1.15,479.2,M,45.2,M,,*5E
$GPGSA,A,3,23,24,20,04,25,11,01,,,,,,1.87,1.15,1.48*03
$GPGSV,3,1,10,23,83,192,39,24,69,267,39,20,62,085,44,13,46,226,25*7A
$GPGSV,3,2,10,04,31,308,50,25,27,050,48,17,22,248,26,11,21,162,38*7B
$GPGSV,3,3,10,01,13,051,37,02,03,319,*71
$GPGLL,4822.11394,N,01430.88717,E,153922.00,A,A*62
$GPZDA,153922.00,20,03,2006,00,00*6D
$GPRMC,153923.00,A,4822.11392,N,01430.88701,E,0.004,307.53,200306,,,A*64
$GPVTG,307.53,T,,M,0.004,N,0.007,K,A*3C
$GPGGA,153923.00,4822.11392,N,01430.88701,E,1,07,1.15,479.4,M,45.2,M,,*58
$GPGSA,A,3,23,24,20,04,25,11,01,,,,,,1.87,1.15,1.48*03
$GPGSV,3,1,10,23,83,192,39,24,69,267,39,20,62,085,44,13,46,226,26*79
$GPGSV,3,2,10,04,31,308,50,25,27,050,48,17,22,248,26,11,21,162,38*7B
$GPGSV,3,3,10,01,13,051,37,02,03,319,*71
$GPGLL,4822.11392,N,01430.88701,E,153923.00,A,A*62
$GPZDA,153923.00,20,03,2006,00,00*6C
$GPRMC,153924.00,A,4822.11387,N,01430.88686,E,0.002,307.53,200306,,,A*6F
$GPVTG,307.53,T,,M,0.002,N,0.004,K,A*39
$GPGGA,153924.00,4822.11387,N,01430.88686,E,1,07,1.15,479.6,M,45.2,M,,*57
$GPGSA,A,3,23,24,20,04,25,11,01,,,,,,1.87,1.15,1.48*03
$GPGSV,3,1,10,23,83,192,39,24,69,267,39,20,62,085,44,13,46,226,26*79
$GPGSV,3,2,10,04,31,308,50,25,27,050,48,17,22,248,26,11,21,162,37*74
$GPGSV,3,3,10,01,13,051,37,02,03,319,*71
$GPGLL,4822.11387,N,01430.88686,E,153924.00,A,A*6F
$GPZDA,153924.00,20,03,2006,00,00*6B
$GPRMC,153925.00,A,4822.11384,N,01430.88673,E,0.004,307.53,200306,,,A*61
$GPVTG,307.53,T,,M,0.004,N,0.008,K,A*33
$GPGGA,153925.00,4822.11384,N,01430.88673,E,1,07,1.15,479.8,M,45.2,M,,*51
$GPGSA,A,3,23,24,20,04,25,11,01,,,,,,1.87,1.15,1.48*03
$GPGSV,3,1,10,23,83,192,38,24,69,267,39,20,62,085,44,13,46,226,27*79
$GPGSV,3,2,10,04,31,308,50,25,27,050,48,17,22,248,26,11,21,162,38*7B
$GPGSV,3,3,10,01,13,051,37,02,03,319,*71
$GPGLL,4822.11384,N,01430.88673,E,153925.00,A,A*67
$GPZDA,153925.00,20,03,2006,00,00*6A
$GPRMC,153926.00,A,4822.11378,N,01430.88661,E,0.007,307.53,200306,,,A*61
$GPVTG,307.53,T,,M,0.007,N,0.013,K,A*3A
$GPGGA,153926.00,4822.11378,N,01430.88661,E,1,07,1.15,480.0,M,45.2,M,,*5C
$GPGSA,A,3,23,24,20,04,25,11,01,,,,,,1.87,1.15,1.48*03
$GPGSV,3,1,10,23,83,192,38,24,69,267,39,20,62,085,44,13,46,226,27*79
$GPGSV,3,2,10,04,31,308,50,25,27,050,48,17,22,248,26,11,21,162,37*74
$GPGSV,3,3,10,01,12,051,37,02,03,319,*70
$GPGLL,4822.11378,N,01430.88661,E,153926.00,A,A*64
$GPZDA,153926.00,20,03,2006,00,00*69
$GPRMC,153927.00,A,4822.11372,N,01430.88649,E,0.006,307.53,200306,,,A*61
$GPVTG,307.53,T,,M,0.006,N,0.012,K,A*3A
$GPGGA,153927.00,4822.11372,N,01430.88649,E,1,07,1.15,480.2,M,45.2,M,,*5F
$GPGSA,A,3,23,24,20,04,25,11,01,,,,,,1.87,1.15,1.48*03
$GPGSV,3,1,10,23,83,192,38,24,69,267,38,20,62,085,44,13,46,226,28*77
$GPGSV,3,2,10,04,31,308,50,25,27,050,48,17,22,248,26,11,21,162,37*74
$GPGSV,3,3,10,01,12,051,37,02,03,319,*70
$GPGLL,4822.11372,N,01430.88649,E,153927.00,A,A*65
$GPZDA,153927.00,20,03,2006,00,00*68
$GPRMC,153928.00,A,4822.11368,N,01430.88638,E,0.005,307.53,200306,,,A*60
$GPVTG,307.53,T,,M,0.005,N,0.009,K,A*33
$GPGGA,153928.00,4822.11368,N,01430.88638,E,1,07,1.15,480.2,M,45.2,M,,*5D
$GPGSA,A,3,23,24,20,04,25,11,01,,,,,,1.87,1.15,1.48*03
$GPGSV,3,1,10,23,83,192,37,24,69,267,39,20,62,085,44,13,46,226,30*70
$GPGSV,3,2,10,04,31,308,50,25,27,050,48,17,22,248,26,11,21,162,37*74
$GPGSV,3,3,10,01,12,051,37,02,03,319,*70
$GPGLL,4822.11368,N,01430.88638,E,153928.00,A,A*67
$GPZDA,153928.00,20,03,2006,00,00*67
$GPRMC,153929.00,A,4822.11361,N,01430.88625,E,0.012,307.53,200306,,,A*62
$GPVTG,307.53,T,,M,0.012,N,0.022,K,A*3C
$GPGGA,153929.00,4822.11361,N,01430.88625,E,1,07,1.15,480.2,M,45.2,M,,*59
$GPGSA,A,3,23,24,20,04,25,11,01,,,,,,1.87,1.15,1.48*03
$GPGSV,3,1,10,23,83,192,37,24,69,267,38,20,62,085,44,13,46,226,30*71
$GPGSV,3,2,10,04,31,308,51,25,27,050,48,17,22,248,27,11,21,162,37*74
$GPGSV,3,3,10,01,12,051,37,02,03,319,*70
$GPGLL,4822.11361,N,01430.88625,E,153929.00,A,A*63
$GPZDA,153929.00,20,03,2006,00,00*66
$GPRMC,153930.00,A,4822.11353,N,01430.88610,E,0.014,307.53,200306,,,A*6B
$GPVTG,307.53,T,,M,0.014,N,0.026,K,A*3E
$GPGGA,153930.00,4822.11353,N,01430.88610,E,1,07,1.15,480.4,M,45.2,M,,*50
$GPGSA,A,3,23,24,20,04,25,11,01,,,,,,1.87,1.15,1.48*03
$GPGSV,3,1,10,23,83,192,37,24,69,267,38,20,62,085,44,13,46,226,30*71
$GPGSV,3,2,10,04,31,308,50,25,27,050,48,17,22,248,27,11,21,162,37*75
$GPGSV,3,3,10,01,12,051,36,02,03,319,*71
$GPGLL,4822.11353,N,01430.88610,E,153930.00,A,A*6C
$GPZDA,153930.00,20,03,2006,00,00*6E
$GPRMC,153931.00,A,4822.11346,N,01430.88597,E,0.005,307.53,200306,,,A*62
$GPVTG,307.53,T,,M,0.005,N,0.010,K,A*3B
$GPGGA,153931.00,4822.11346,N,01430.88597,E,1,07,1.15,480.4,M,45.2,M,,*59
$GPGSA,A,3,23,24,20,04,25,11,01,,,,,,1.87,1.15,1.48*03
$GPGSV,3,1,10,23,83,192,37,24,69,267,38,20,62,085,44,13,46,226,31*70
$GPGSV,3,2,10,04,31,308,51,25,27,050,48,17,22,248,28,11,21,162,37*7B
$GPGSV,3,3,10,01,12,051,37,02,03,319,*70
$GPGLL,4822.11346,N,01430.88597,E,153931.00,A,A*65
$GPZDA,153931.00,20,03,2006,00,00*6F
$GPRMC,153932.00,A,4822.11339,N,01430.88584,E,0.002,307.53,200306,,,A*6C
$GPVTG,307.53,T,,M,0.002,N,0.003,K,A*3E
$GPGGA,153932.00,4822.11339,N,01430.88584,E,1,07,1.15,480.4,M,45.2,M,,*50
$GPGSA,A,3,23,24,20,04,25,11,01,,,,,,1.87,1.15,1.48*03
$GPGSV,3,1,10,23,83,192,36,24,69,267,38,20,62,085,44,13,46,226,31*71
$GPGSV,3,2,10,04,31,308,51,25,27,050,48,17,22,248,27,11,21,162,37*74
$GPGSV,3,3,10,01,12,051,36,02,03,319,*71
$GPGLL,4822.11339,N,01430.88584,E,153932.00,A,A*6C
$GPZDA,153932.00,20,03,2006,00,00*6C
$GPRMC,153933.00,A,4822.11332,N,01430.88570,E,0.005,307.53,200306,,,A*6A
$GPVTG,307.53,T,,M,0.005,N,0.009,K,A*33
$GPGGA,153933.00,4822.11332,N,01430.88570,E,1,07,1.15,480.5,M,45.2,M,,*50
$GPGSA,A,3,23,24,20,04,25,11,01,,,,,,1.87,1.15,1.48*03
$GPGSV,3,1,10,23,83,192,36,24,69,267,38,20,62,085,44,13,46,226,31*71
$GPGSV,3,2,10,04,31,308,50,25,27,050,48,17,22,248,28,11,21,162,36*7B
$GPGSV,3,3,10,01,12,051,36,02,03,319,*71
$GPGLL,4822.11332,N,01430.88570,E,153933.00,A,A*6D
$GPZDA,153933.00,20,03,2006,00,00*6D
$GPRMC,153934.00,A,4822.11326,N,01430.88557,E,0.006,307.53,200306,,,A*6E
$GPVTG,307.53,T,,M,0.006,N,0.011,K,A*39
$GPGGA,153934.00,4822.11326,N,01430.88557,E,1,07,1.15,480.6,M,45.2,M,,*54
$GPGSA,A,3,23,24,20,04,25,11,01,,,,,,1.87,1.15,1.48*03
$GPGSV,3,1,10,23,83,192,36,24,69,267,38,20,62,085,44,13,46,226,31*71
$GPGSV,3,2,10,04,31,308,51,25,27,050,48,17,22,248,28,11,21,162,37*7B
$GPGSV,3,3,10,01,12,051,36,02,03,319,*71
$GPGLL,4822.11326,N,01430.88557,E,153934.00,A,A*6A
$GPZDA,153934.00,20,03,2006,00,00*6A
$GPRMC,153935.00,A,4822.11319,N,01430.88543,E,0.007,307.53,200306,,,A*67
$GPVTG,307.53,T,,M,0.007,N,0.013,K,A*3A
$GPGGA,153935.00,4822.11319,N,01430.88543,E,1,07,1.15,480.6,M,45.2,M,,*5C
$GPGSA,A,3,23,24,20,04,25,11,01,,,,,,1.87,1.15,1.48*03
$GPGSV,3,1,10,23,83,192,36,24,69,267,39,20,62,085,44,13,46,226,31*70
$GPGSV,3,2,10,04,31,308,51,25,27,050,48,17,22,248,28,11,21,162,36*7A
$GPGSV,3,3,10,01,12,051,36,02,03,319,*71
$GPGLL,4822.11319,N,01430.88543,E,153935.00,A,A*62
$GPZDA,153935.00,20,03,2006,00,00*6B
$GPRMC,153936.00,A,4822.11312,N,01430.88533,E,0.001,307.53,200306,,,A*6E
$GPVTG,307.53,T,,M,0.001,N,0.003,K,A*3D
$GPGGA,153936.00,4822.11312,N,01430.88533,E,1,07,1.15,480.8,M,45.2,M,,*5D
$GPGSA,A,3,23,24,20,04,25,11,01,,,,,,1.87,1.15,1.48*03
$GPGSV,3,1,10,23,83,192,36,24,69,267,38,20,62,085,44,13,46,226,30*70
$GPGSV,3,2,10,04,31,308,50,25,27,050,48,17,22,248,28,11,20,162,36*7A
$GPGSV,3,3,10,01,12,051,36,02,03,319,*71
$GPGLL,4822.11312,N,01430.88533,E,153936.00,A,A*6D
$GPZDA,153936.00,20,03,2006,00,00*68
$GPRMC,153937.00,A,4822.11305,N,01430.88521,E,0.002,307.53,200306,,,A*69
$GPVTG,307.53,T,,M,0.002,N,0.005,K,A*38
$GPGGA,153937.00,4822.11305,N,01430.88521,E,1,07,1.15,480.9,M,45.2,M,,*58
$GPGSA,A,3,23,24,20,04,25,11,01,,,,,,1.87,1.15,1.48*03
$GPGSV,3,1,10,23,83,192,36,24,69,267,38,20,62,085,44,13,46,226,30*70
$GPGSV,3,2,10,04,31,308,50,25,27,050,48,17,22,248,28,11,20,162,36*7A
$GPGSV,3,3,10,01,12,051,36,02,03,319,*71
$GPGLL,4822.11305,N,01430.88521,E,153937.00,A,A*69
$GPZDA,153937.00,20,03,2006,00,00*69
$GPRMC,153938.00,A,4822.11298,N,01430.88510,E,0.002,307.53,200306,,,A*61
$GPVTG,307.53,T,,M,0.002,N,0.004,K,A*39
$GPGGA,153938.00,4822.11298,N,01430.88510,E,1,07,1.15,481.1,M,45.2,M,,*59
$GPGSA,A,3,23,24,20,04,25,11,01,,,,,,1.87,1.15,1.48*03
$GPGSV,3,1,10,23,83,192,36,24,69,267,38,20,62,085,44,13,46,226,30*70
$GPGSV,3,2,10,04,31,308,50,25,27,050,48,17,22,248,28,11,20,162,36*7A
$GPGSV,3,3,10,01,12,051,36,02,03,319,*71
$GPGLL,4822.11298,N,01430.88510,E,153938.00,A,A*61
$GPZDA,153938.00,20,03,2006,00,00*66
$GPRMC,153939.00,A,4822.11291,N,01430.88500,E,0.007,307.53,200306,,,A*6D
$GPVTG,307.53,T,,M,0.007,N,0.014,K,A*3D
$GPGGA,153939.00,4822.11291,N,01430.88500,E,1,07,1.15,481.2,M,45.2,M,,*53
$GPGSA,A,3,23,24,20,04,25,11,01,,,,,,1.87,1.15,1.48*03
$GPGSV,3,1,10,23,83,192,36,24,69,267,38,20,62,085,44,13,46,226,30*70
$GPGSV,3,2,10,04,31,308,50,25,27,050,48,17,22,248,28,11,20,162,36*7A
$GPGSV,3,3,10,01,12,051,36,02,03,319,*71
$GPGLL,4822.11291,N,01430.88500,E,153939.00,A,A*68
$GPZDA,153939.00,20,03,2006,00,00*67
$GPRMC,153940.00,A,4822.11284,N,01430.88489,E,0.001,307.53,200306,,,A*61
$GPVTG,307.53,T,,M,0.001,N,0.002,K,A*3C
$GPGGA,153940.00,4822.11284,N,01430.88489,E,1,07,1.15,481.3,M,45.2,M,,*58
$GPGSA,A,3,23,24,20,04,25,11,01,,,,,,1.87,1.15,1.48*03
$GPGSV,3,1,10,23,83,192,36,24,69,267,38,20,62,085,44,13,46,226,30*70
$GPGSV,3,2,10,04,31,308,50,25,27,050,48,17,22,248,28,11,20,162,35*79
$GPGSV,3,3,10,01,12,051,36,02,03,319,*71
$GPGLL,4822.11284,N,01430.88489,E,153940.00,A,A*62
$GPZDA,153940.00,20,03,2006,00,00*69
$GPRMC,153941.00,A,4822.11277,N,01430.88475,E,0.010,307.53,200306,,,A*6F
$GPVTG,307.53,T,,M,0.010,N,0.019,K,A*36
$GPGGA,153941.00,4822.11277,N,01430.88475,E,1,07,1.15,481.4,M,45.2,M,,*51
$GPGSA,A,3,23,24,20,04,25,11,01,,,,,,1.87,1.15,1.48*03
$GPGSV,3,1,10,23,83,192,36,24,69,267,38,20,62,085,44,13,46,226,30*70
$GPGSV,3,2,10,04,31,308,50,25,27,050,48,17,22,248,28,11,20,162,36*7A
$GPGSV,3,3,10,01,12,051,36,02,03,319,*71
$GPGLL,4822.11277,N,01430.88475,E,153941.00,A,A*6C
$GPZDA,153941.00,20,03,2006,00,00*68
$GPRMC,153942.00,A,4822.11270,N,01430.88462,E,0.002,307.53,200306,,,A*6E
$GPVTG,307.53,T,,M,0.002,N,0.004,K,A*39
$GPGGA,153942.00,4822.11270,N,01430.88462,E,1,07,1.15,481.4,M,45.2,M,,*53
$GPGSA,A,3,23,24,20,04,25,11,01,,,,,,1.87,1.15,1.48*03
$GPGSV,3,1,10,23,83,192,36,24,69,267,39,20,62,085,44,13,46,226,30*71
$GPGSV,3,2,10,04,31,308,51,25,27,050,48,17,22,247,27,11,20,162,36*7B
$GPGSV,3,3,10,01,12,051,36,02,03,319,*71
$GPGLL,4822.11270,N,01430.88462,E,153942.00,A,A*6E
$GPZDA,153942.00,20,03,2006,00,00*6B
$GPRMC,153943.00,A,4822.11265,N,01430.88449,E,0.000,307.53,200306,,,A*60
$GPVTG,307.53,T,,M,0.000,N,0.001,K,A*3E
$GPGGA,153943.00,4822.11265,N,01430.88449,E,1,07,1.15,481.4,M,45.2,M,,*5F
$GPGSA,A,3,23,24,20,04,25,11,01,,,,,,1.87,1.15,1.48*03
$GPGSV,3,1,10,23,83,192,36,24,69,267,39,20,62,085,44,13,46,226,30*71
$GPGSV,3,2,10,04,31,308,51,25,27,050,48,17,22,247,27,11,20,162,36*7B
$GPGSV,3,3,10,01,12,051,36,02,03,319,*71
$GPGLL,4822.11265,N,01430.88449,E,153943.00,A,A*62
$GPZDA,153943.00,20,03,2006,00,00*6A
$GPRMC,153944.00,A,4822.11259,N,01430.88437,E,0.002,307.53,200306,,,A*63
$GPVTG,307.53,T,,M,0.002,N,0.004,K,A*39
$GPGGA,153944.00,4822.11259,N,01430.88437,E,1,07,1.15,481.4,M,45.2,M,,*5E
$GPGSA,A,3,23,24,20,04,25,11,01,,,,,,1.87,1.15,1.48*03
$GPGSV,3,1,10,23,83,192,36,24,69,267,39,20,62,085,44,13,46,226,30*71
$GPGSV,3,2,10,04,31,308,51,25,27,050,48,17,22,247,27,11,20,162,36*7B
$GPGSV,3,3,10,01,12,051,36,02,03,319,*71
$GPGLL,4822.11259,N,01430.88437,E,153944.00,A,A*63
$GPZDA,153944.00,20,03,2006,00,00*6D
$GPRMC,153945.00,A,4822.11254,N,01430.88428,E,0.010,307.53,200306,,,A*62
$GPVTG,307.53,T,,M,0.010,N,0.019,K,A*36
$GPGGA,153945.00,4822.11254,N,01430.88428,E,1,07,1.15,481.4,M,45.2,M,,*5C
$GPGSA,A,3,23,24,20,04,25,11,01,,,,,,1.87,1.15,1.48*03
$GPGSV,3,1,10,23,83,192,36,24,69,267,39,20,61,085,44,13,46,226,30*72
$GPGSV,3,2,10,04,31,308,51,25,27,050,48,17,22,247,27,11,20,162,36*7B
$GPGSV,3,3,10,01,12,051,36,02,03,319,*71
$GPGLL,4822.11254,N,01430.88428,E,153945.00,A,A*61
$GPZDA,153945.00,20,03,2006,00,00*6C
$GPRMC,153946.00,A,4822.11248,N,01430.88419,E,0.015,307.53,200306,,,A*6B
$GPVTG,307.53,T,,M,0.015,N,0.028,K,A*31
$GPGGA,153946.00,4822.11248,N,01430.88419,E,1,07,1.15,481.4,M,45.2,M,,*50
$GPGSA,A,3,23,24,20,04,25,11,01,,,,,,1.87,1.15,1.48*03
$GPGSV,3,1,10,23,83,192,37,24,69,267,39,20,61,085,44,13,46,226,30*73
$GPGSV,3,2,10,04,31,308,51,25,27,050,48,17,22,247,28,11,20,162,35*77
$GPGSV,3,3,10,01,12,051,36,02,03,319,*71
$GPGLL,4822.11248,N,01430.88419,E,153946.00,A,A*6D
$GPZDA,153946.00,20,03,2006,00,00*6F
$GPRMC,153947.00,A,4822.11244,N,01430.88414,E,0.012,307.53,200306,,,A*6C
$GPVTG,307.53,T,,M,0.012,N,0.022,K,A*3C
$GPGGA,153947.00,4822.11244,N,01430.88414,E,1,07,1.15,481.4,M,45.2,M,,*50
$GPGSA,A,3,23,24,20,04,25,11,01,,,,,,1.87,1.15,1.48*03
$GPGSV,3,1,10,23,83,192,37,24,69,267,40,20,61,085,44,13,46,226,30*7D
$GPGSV,3,2,10,04,31,308,51,25,27,050,48,17,22,247,27,11,20,162,36*7B
$GPGSV,3,3,10,01,12,051,36,02,03,319,*71
$GPGLL,4822.11244,N,01430.88414,E,153947.00,A,A*6D
$GPZDA,153947.00,20,03,2006,00,00*6E
$GPRMC,153948.00,A,4822.11242,N,01430.88410,E,0.008,307.53,200306,,,A*6A
$GPVTG,307.53,T,,M,0.008,N,0.014,K,A*32
$GPGGA,153948.00,4822.11242,N,01430.88410,E,1,07,1.15,481.3,M,45.2,M,,*5A
$GPGSA,A,3,23,24,20,04,25,11,01,,,,,,1.87,1.15,1.48*03
$GPGSV,3,1,10,23,83,191,36,24,69,267,40,20,61,085,44,13,46,226,30*7F
$GPGSV,3,2,10,04,31,308,51,25,27,050,48,17,22,247,28,11,20,162,36*74
$GPGSV,3,3,10,01,12,051,36,02,03,319,*71
$GPGLL,4822.11242,N,01430.88410,E,153948.00,A,A*60
$GPZDA,153948.00,20,03,2006,00,00*61
$GPRMC,153949.00,A,4822.11238,N,01430.88407,E,0.008,307.53,200306,,,A*60
$GPVTG,307.53,T,,M,0.008,N,0.014,K,A*32
$GPGGA,153949.00,4822.11238,N,01430.88407,E,1,07,1.15,481.2,M,45.2,M,,*51
$GPGSA,A,3,23,24,20,04,25,11,01,,,,,,1.87,1.15,1.48*03
$GPGSV,3,1,10,23,83,191,37,24,69,266,40,20,61,085,44,13,46,226,31*7E
$GPGSV,3,2,10,04,31,308,51,25,27,050,48,17,22,247,28,11,20,162,35*77
$GPGSV,3,3,10,01,12,051,36,02,03,319,*71
$GPGLL,4822.11238,N,01430.88407,E,153949.00,A,A*6A
$GPZDA,153949.00,20,03,2006,00,00*60
$GPRMC,153950.00,A,4822.11236,N,01430.88403,E,0.006,307.53,200306,,,A*6C
$GPVTG,307.53,T,,M,0.006,N,0.012,K,A*3A
$GPGGA,153950.00,4822.11236,N,01430.88403,E,1,07,1.15,481.2,M,45.2,M,,*53
$GPGSA,A,3,23,24,20,04,25,11,01,,,,,,1.87,1.15,1.48*03
$GPGSV,3,1,10,23,83,191,37,24,69,266,40,20,61,085,44,13,46,226,31*7E
$GPGSV,3,2,10,04,31,308,51,25,27,050,48,17,22,247,29,11,20,162,36*75
$GPGSV,3,3,10,01,12,051,36,02,03,319,*71
$GPGLL,4822.11236,N,01430.88403,E,153950.00,A,A*68
$GPZDA,153950.00,20,03,2006,00,00*68
$GPRMC,153951.00,A,4822.11235,N,01430.88400,E,0.011,307.53,200306,,,A*6B
$GPVTG,307.53,T,,M,0.011,N,0.021,K,A*3C
$GPGGA,153951.00,4822.11235,N,01430.88400,E,1,07,1.15,481.2,M,45.2,M,,*52
$GPGSA,A,3,23,24,20,04,25,11,01,,,,,,1.87,1.15,1.48*03
$GPGSV,3,1,10,23,83,191,37,24,69,266,40,20,61,085,44,13,46,226,31*7E
$GPGSV,3,2,10,04,31,308,51,25,27,050,48,17,22,247,29,11,20,162,36*75
$GPGSV,3,3,10,01,12,051,36,02,03,319,*71
$GPGLL,4822.11235,N,01430.88400,E,153951.00,A,A*69
$GPZDA,153951.00,20,03,2006,00,00*69
$GPRMC,153952.00,A,4822.11230,N,01430.88397,E,0.003,307.53,200306,,,A*67
$GPVTG,307.53,T,,M,0.003,N,0.005,K,A*39
$GPGGA,153952.00,4822.11230,N,01430.88397,E,1,07,1.15,481.2,M,45.2,M,,*5D
$GPGSA,A,3,23,24,20,04,25,11,01,,,,,,1.87,1.15,1.48*03
$GPGSV,3,1,10,23,83,191,38,24,69,266,41,20,61,085,44,13,46,226,30*71
$GPGSV,3,2,10,04,31,308,51,25,27,050,48,17,22,247,30,11,20,162,36*7D
$GPGSV,3,3,10,01,12,051,36,02,03,319,*71
$GPGLL,4822.11230,N,01430.88397,E,153952.00,A,A*66
$GPZDA,153952.00,20,03,2006,00,00*6A
$GPRMC,153953.00,A,4822.11228,N,01430.88395,E,0.005,307.53,200306,,,A*6B
$GPVTG,307.53,T,,M,0.005,N,0.010,K,A*3B
$GPGGA,153953.00,4822.11228,N,01430.88395,E,1,07,1.15,481.3,M,45.2,M,,*56
$GPGSA,A,3,23,24,20,04,25,11,01,,,,,,1.87,1.15,1.48*03
$GPGSV,3,1,10,23,83,191,38,24,69,266,41,20,61,085,44,13,46,226,30*71
$GPGSV,3,2,10,04,31,308,51,25,27,050,48,17,22,247,30,11,20,162,36*7D
$GPGSV,3,3,10,01,12,051,36,02,03,319,*71
$GPGLL,4822.11228,N,01430.88395,E,153953.00,A,A*6C
$GPZDA,153953.00,20,03,2006,00,00*6B
$GPRMC,153954.00,A,4822.11227,N,01430.88397,E,0.002,307.53,200306,,,A*66
$GPVTG,307.53,T,,M,0.002,N,0.004,K,A*39
$GPGGA,153954.00,4822.11227,N,01430.88397,E,1,07,1.15,481.3,M,45.2,M,,*5C
$GPGSA,A,3,23,24,20,04,25,11,01,,,,,,1.87,1.15,1.48*03
$GPGSV,3,1,10,23,83,191,38,24,69,266,41,20,61,085,44,13,46,226,30*71
$GPGSV,3,2,10,04,31,308,51,25,27,050,48,17,22,247,30,11,20,162,36*7D
$GPGSV,3,3,10,01,12,051,37,02,03,319,*70
$GPGLL,4822.11227,N,01430.88397,E,153954.00,A,A*66
$GPZDA,153954.00,20,03,2006,00,00*6C
$GPRMC,153955.00,A,4822.11226,N,01430.88397,E,0.004,307.53,200306,,,A*60
$GPVTG,307.53,T,,M,0.004,N,0.008,K,A*33
$GPGGA,153955.00,4822.11226,N,01430.88397,E,1,07,1.15,481.3,M,45.2,M,,*5C
$GPGSA,A,3,23,24,20,04,25,11,01,,,,,,1.87,1.15,1.48*03
$GPGSV,3,1,10,23,83,191,38,24,69,266,41,20,61,085,44,13,46,226,29*79
$GPGSV,3,2,10,04,31,308,51,25,27,050,48,17,22,247,30,11,20,162,36*7D
$GPGSV,3,3,10,01,12,051,36,02,03,319,*71
$GPGLL,4822.11226,N,01430.88397,E,153955.00,A,A*66
$GPZDA,153955.00,20,03,2006,00,00*6D
$GPRMC,153956.00,A,4822.11220,N,01430.88401,E,0.008,307.53,200306,,,A*61
$GPVTG,307.53,T,,M,0.008,N,0.015,K,A*33
$GPGGA,153956.00,4822.11220,N,01430.88401,E,1,07,1.15,481.6,M,45.2,M,,*54
$GPGSA,A,3,23,24,20,04,25,11,01,,,,,,1.87,1.15,1.48*03
$GPGSV,3,1,10,23,83,191,39,24,69,266,41,20,61,085,44,13,46,226,28*79
$GPGSV,3,2,10,04,31,308,51,25,27,050,48,17,22,247,29,11,20,162,36*75
$GPGSV,3,3,10,01,12,051,37,02,03,319,*70
$GPGLL,4822.11220,N,01430.88401,E,153956.00,A,A*6B
$GPZDA,153956.00,20,03,2006,00,00*6E
$GPRMC,153957.00,A,4822.11218,N,01430.88404,E,0.006,307.53,200306,,,A*60
$GPVTG,307.53,T,,M,0.006,N,0.011,K,A*39
$GPGGA,153957.00,4822.11218,N,01430.88404,E,1,07,1.15,481.8,M,45.2,M,,*55
$GPGSA,A,3,23,24,20,04,25,11,01,,,,,,1.87,1.15,1.48*03
$GPGSV,3,1,10,23,83,191,39,24,69,266,41,20,61,085,44,13,46,226,28*79
$GPGSV,3,2,10,04,31,308,51,25,27,050,48,17,22,247,29,11,20,162,37*74
$GPGSV,3,3,10,01,12,051,37,02,03,319,*70
$GPGLL,4822.11218,N,01430.88404,E,153957.00,A,A*64
$GPZDA,153957.00,20,03,2006,00,00*6F
$GPRMC,153958.00,A,4822.11218,N,01430.88408,E,0.004,307.53,200306,,,A*61
$GPVTG,307.53,T,,M,0.004,N,0.008,K,A*33
$GPGGA,153958.00,4822.11218,N,01430.88408,E,1,07,1.15,481.9,M,45.2,M,,*57
$GPGSA,A,3,23,24,20,04,25,11,01,,,,,,1.87,1.15,1.48*03
$GPGSV,3,1,10,23,83,191,39,24,69,266,41,20,61,085,44,13,46,226,27*76
$GPGSV,3,2,10,04,31,308,51,25,27,050,48,17,22,247,29,11,20,162,37*74
$GPGSV,3,3,10,01,12,051,37,02,03,319,*70
$GPGLL,4822.11218,N,01430.88408,E,153958.00,A,A*67
$GPZDA,153958.00,20,03,2006,00,00*60
$GPRMC,153959.00,A,4822.11217,N,01430.88412,E,0.008,307.53,200306,,,A*68
$GPVTG,307.53,T,,M,0.008,N,0.016,K,A*30
$GPGGA,153959.00,4822.11217,N,01430.88412,E,1,07,1.15,482.0,M,45.2,M,,*58
$GPGSA,A,3,23,24,20,04,25,11,01,,,,,,1.87,1.15,1.47*0C
$GPGSV,3,1,10,23,83,191,40,24,69,266,42,20,61,085,44,13,46,226,27*7B
$GPGSV,3,2,10,04,31,308,51,25,27,050,48,17,22,247,28,11,20,162,37*75
$GPGSV,3,3,10,01,12,051,37,02,03,319,*70
$GPGLL,4822.11217,N,01430.88412,E,153959.00,A,A*62
$GPZDA,153959.00,20,03,2006,00,00*61
$GPRMC,154000.00,A,4822.11218,N,01430.88417,E,0.007,307.53,200306,,,A*6F
$GPVTG,307.53,T,,M,0.007,N,0.013,K,A*3A
$GPGGA,154000.00,4822.11218,N,01430.88417,E,1,07,1.15,482.1,M,45.2,M,,*51
$GPGSA,A,3,23,24,20,04,25,11,01,,,,,,1.87,1.15,1.48*03
$GPGSV,3,1,10,23,83,191,40,24,69,266,42,20,61,085,43,13,46,226,27*7C
$GPGSV,3,2,10,04,31,308,51,25,27,050,48,17,22,247,27,11,20,162,37*7A
$GPGSV,3,3,10,01,12,051,37,02,03,319,*70
$GPGLL,4822.11218,N,01430.88417,E,154000.00,A,A*6A
$GPZDA,154000.00,20,03,2006,00,00*63
$GPRMC,154001.00,A,4822.11220,N,01430.88423,E,0.010,307.53,200306,,,A*64
$GPVTG,307.53,T,,M,0.010,N,0.018,K,A*37
$GPGGA,154001.00,4822.11220,N,01430.88423,E,1,07,1.15,482.1,M,45.2,M,,*5C
$GPGSA,A,3,23,24,20,04,25,11,01,,,,,,1.87,1.15,1.48*03
$GPGSV,3,1,10,23,83,191,40,24,69,266,42,20,61,085,43,13,46,226,27*7C
$GPGSV,3,2,10,04,31,308,51,25,27,050,48,17,22,247,25,11,20,162,37*78
$GPGSV,3,3,10,01,12,051,37,02,03,319,*70
$GPGLL,4822.11220,N,01430.88423,E,154001.00,A,A*67
$GPZDA,154001.00,20,03,2006,00,00*62
$GPRMC,154002.00,A,4822.11223,N,01430.88428,E,0.005,307.53,200306,,,A*6B
$GPVTG,307.53,T,,M,0.005,N,0.010,K,A*3B
$GPGGA,154002.00,4822.11223,N,01430.88428,E,1,07,1.15,482.1,M,45.2,M,,*57
$GPGSA,A,3,23,24,20,04,25,11,01,,,,,,1.87,1.15,1.48*03
$GPGSV,3,1,10,23,83,191,41,24,69,266,43,20,61,085,43,13,46,226,27*7C
$GPGSV,3,2,10,04,31,308,51,25,27,050,48,17,22,247,26,11,20,162,37*7B
$GPGSV,3,3,10,01,12,051,37,02,03,319,*70
$GPGLL,4822.11223,N,01430.88428,E,154002.00,A,A*6C
$GPZDA,154002.00,20,03,2006,00,00*61
$GPRMC,154003.00,A,4822.11228,N,01430.88432,E,0.008,307.53,200306,,,A*67
$GPVTG,307.53,T,,M,0.008,N,0.015,K,A*33
$GPGGA,154003.00,4822.11228,N,01430.88432,E,1,07,1.15,482.1,M,45.2,M,,*56
$GPGSA,A,3,23,24,20,04,25,11,01,,,,,,1.87,1.15,1.48*03
$GPGSV,3,1,10,23,83,191,41,24,69,266,43,20,61,085,43,13,46,226,27*7C
$GPGSV,3,2,10,04,31,308,51,25,27,050,48,17,22,247,25,11,20,162,37*78
$GPGSV,3,3,10,01,12,051,37,02,03,319,*70
$GPGLL,4822.11228,N,01430.88432,E,154003.00,A,A*6D
$GPZDA,154003.00,20,03,2006,00,00*60
$GPRMC,154004.00,A,4822.11233,N,01430.88436,E,0.003,307.53,200306,,,A*65
$GPVTG,307.53,T,,M,0.003,N,0.006,K,A*3A
$GPGGA,154004.00,4822.11233,N,01430.88436,E,1,07,1.15,482.0,M,45.2,M,,*5E
$GPGSA,A,3,23,24,20,04,25,11,01,,,,,,1.87,1.15,1.47*0C
$GPGSV,3,1,10,23,83,191,42,24,69,266,43,20,61,085,43,13,46,226,26*7E
$GPGSV,3,2,10,04,31,308,51,25,27,050,49,17,22,247,25,11,20,162,37*79
$GPGSV,3,3,10,01,12,051,37,02,03,319,*70
$GPGLL,4822.11233,N,01430.88436,E,154004.00,A,A*64
$GPZDA,154004.00,20,03,2006,00,00*67
$GPRMC,154005.00,A,4822.11248,N,01430.88438,E,0.002,307.53,200306,,,A*67
$GPVTG,307.53,T,,M,0.002,N,0.003,K,A*3E
$GPGGA,154005.00,4822.11248,N,01430.88438,E,1,07,1.15,482.1,M,45.2,M,,*5C
$GPGSA,A,3,23,24,20,04,25,11,01,,,,,,1.87,1.15,1.48*03
$GPGSV,3,1,10,23,83,191,42,24,69,266,43,20,61,085,43,13,46,226,26*7E
$GPGSV,3,2,10,04,31,308,51,25,27,050,48,17,22,247,24,11,20,162,38*76
$GPGSV,3,3,10,01,12,051,37,02,03,319,*70
$GPGLL,4822.11248,N,01430.88438,E,154005.00,A,A*67
$GPZDA,154005.00,20,03,2006,00,00*66
$GPRMC,154006.00,A,4822.11253,N,01430.88444,E,0.011,307.53,200306,,,A*67
$GPVTG,307.53,T,,M,0.011,N,0.020,K,A*3D
$GPGGA,154006.00,4822.11253,N,01430.88444,E,1,07,1.15,482.0,M,45.2,M,,*5F
$GPGSA,A,3,23,24,20,04,25,11,01,,,,,,1.87,1.15,1.47*0C
$GPGSV,3,1,10,23,83,191,42,24,69,266,43,20,61,085,43,13,46,226,25*7D
$GPGSV,3,2,10,04,31,308,51,25,27,050,48,17,22,247,24,11,20,162,37*79
$GPGSV,3,3,10,01,12,051,37,02,03,319,*70
$GPGLL,4822.11253,N,01430.88444,E,154006.00,A,A*65
$GPZDA,154006.00,20,03,2006,00,00*65
$GPRMC,154007.00,A,4822.11259,N,01430.88449,E,0.002,307.53,200306,,,A*63
$GPVTG,307.53,T,,M,0.002,N,0.003,K,A*3E
$GPGGA,154007.00,4822.11259,N,01430.88449,E,1,07,1.15,481.9,M,45.2,M,,*53
$GPGSA,A,3,23,24,20,04,25,11,01,,,,,,1.87,1.15,1.48*03
$GPGSV,3,1,10,23,83,191,42,24,69,266,43,20,61,085,43,13,46,226,25*7D
$GPGSV,3,2,10,04,31,308,51,25,27,050,48,17,22,247,23,11,20,162,37*7E
$GPGSV,3,3,10,01,12,051,37,02,03,319,*70
$GPGLL,4822.11259,N,01430.88449,E,154007.00,A,A*63
$GPZDA,154007.00,20,03,2006,00,00*64
$GPRMC,154008.00,A,4822.11272,N,01430.88453,E,0.004,307.53,200306,,,A*68
$GPVTG,307.53,T,,M,0.004,N,0.008,K,A*33
$GPGGA,154008.00,4822.11272,N,01430.88453,E,1,07,1.15,481.9,M,45.2,M,,*5E
$GPGSA,A,3,23,24,20,04,25,11,01,,,,,,1.87,1.15,1.48*03
$GPGSV,3,1,10,23,83,191,42,24,69,266,43,20,61,085,43,13,46,226,25*7D
$GPGSV,3,2,10,04,31,308,51,25,27,050,48,17,22,247,24,11,20,162,38*76
$GPGSV,3,3,10,01,12,051,37,02,03,319,*70
$GPGLL,4822.11272,N,01430.88453,E,154008.00,A,A*6E
$GPZDA,154008.00,20,03,2006,00,00*6B
$GPRMC,154009.00,A,4822.11278,N,01430.88459,E,0.001,307.53,200306,,,A*6C
$GPVTG,307.53,T,,M,0.001,N,0.002,K,A*3C
$GPGGA,154009.00,4822.11278,N,01430.88459,E,1,07,1.15,481.7,M,45.2,M,,*51
$GPGSA,A,3,23,24,20,04,25,11,01,,,,,,1.87,1.15,1.47*0C
$GPGSV,3,1,10,23,83,191,42,24,69,266,43,20,61,085,43,13,46,226,25*7D
$GPGSV,3,2,10,04,31,308,51,25,27,050,48,17,22,247,24,11,20,162,37*79
$GPGSV,3,3,10,01,12,051,37,02,03,319,*70
$GPGLL,4822.11278,N,01430.88459,E,154009.00,A,A*6F
$GPZDA,154009.00,20,03,2006,00,00*6A
$GPRMC,154010.00,A,4822.11285,N,01430.88465,E,0.006,307.53,200306,,,A*6E
$GPVTG,307.53,T,,M,0.006,N,0.010,K,A*38
$GPGGA,154010.00,4822.11285,N,01430.88465,E,1,07,1.15,481.7,M,45.2,M,,*54
$GPGSA,A,3,23,24,20,04,25,11,01,,,,,,1.87,1.15,1.47*0C
$GPGSV,3,1,10,23,83,191,42,24,69,266,43,20,61,085,43,13,46,226,25*7D
$GPGSV,3,2,10,04,31,308,51,25,27,050,48,17,22,247,24,11,20,162,37*79
$GPGSV,3,3,10,01,12,051,37,02,03,319,*70
$GPGLL,4822.11285,N,01430.88465,E,154010.00,A,A*6A
$GPZDA,154010.00,20,03,2006,00,00*62
$GPRMC,154011.00,A,4822.11292,N,01430.88472,E,0.005,307.53,200306,,,A*6C
$GPVTG,307.53,T,,M,0.005,N,0.008,K,A*32
$GPGGA,154011.00,4822.11292,N,01430.88472,E,1,07,1.15,481.6,M,45.2,M,,*54
$GPGSA,A,3,23,24,20,04,25,11,01,,,,,,1.87,1.15,1.47*0C
$GPGSV,3,1,10,23,83,191,42,24,69,266,43,20,61,085,43,13,46,226,24*7C
$GPGSV,3,2,10,04,31,308,51,25,27,050,48,17,22,247,24,11,20,162,37*79
$GPGSV,3,3,10,01,12,051,37,02,03,319,*70
$GPGLL,4822.11292,N,01430.88472,E,154011.00,A,A*6B
$GPZDA,154011.00,20,03,2006,00,00*63
$GPRMC,154012.00,A,4822.11300,N,01430.88479,E,0.010,307.53,200306,,,A*6A
$GPVTG,307.53,T,,M,0.010,N,0.019,K,A*36
$GPGGA,154012.00,4822.11300,N,01430.88479,E,1,07,1.15,481.5,M,45.2,M,,*55
$GPGSA,A,3,23,24,20,04,25,11,01,,,,,,1.87,1.15,1.48*03
$GPGSV,3,1,10,23,83,191,42,24,69,266,43,20,61,085,43,13,46,226,23*7B
$GPGSV,3,2,10,04,31,308,51,25,27,050,48,17,22,247,24,11,20,162,37*79
$GPGSV,3,3,10,01,12,051,37,02,03,319,*70
$GPGLL,4822.11300,N,01430.88479,E,154012.00,A,A*69
$GPZDA,154012.00,20,03,2006,00,00*60
$GPRMC,154013.00,A,4822.11308,N,01430.88485,E,0.008,307.53,200306,,,A*69
$GPVTG,307.53,T,,M,0.008,N,0.014,K,A*32
$GPGGA,154013.00,4822.11308,N,01430.88485,E,1,07,1.15,481.4,M,45.2,M,,*5E
$GPGSA,A,3,23,24,20,04,25,11,01,,,,,,1.87,1.15,1.47*0C
$GPGSV,3,1,10,23,83,191,42,24,69,266,43,20,61,085,43,13,46,226,22*7A
$GPGSV,3,2,10,04,31,308,51,25,27,050,48,17,22,247,24,11,20,162,37*79
$GPGSV,3,3,10,01,12,051,37,02,03,319,*70
$GPGLL,4822.11308,N,01430.88485,E,154013.00,A,A*63
$GPZDA,154013.00,20,03,2006,00,00*61
$GPRMC,154014.00,A,4822.11317,N,01430.88492,E,0.007,307.53,200306,,,A*69
$GPVTG,307.53,T,,M,0.007,N,0.013,K,A*3A
$GPGGA,154014.00,4822.11317,N,01430.88492,E,1,07,1.15,481.3,M,45.2,M,,*56
$GPGSA,A,3,23,24,20,04,25,11,01,,,,,,1.87,1.15,1.47*0C
$GPGSV,3,1,10,23,83,191,43,24,69,266,43,20,61,085,43,13,46,226,21*78
$GPGSV,3,2,10,04,31,308,51,25,27,050,48,17,22,247,24,11,20,162,37*79
$GPGSV,3,3,10,01,12,051,37,02,03,319,*70
$GPGLL,4822.11317,N,01430.88492,E,154014.00,A,A*6C
$GPZDA,154014.00,20,03,2006,00,00*66
$GPRMC,154015.00,A,4822.11332,N,01430.88498,E,0.004,307.53,200306,,,A*66
$GPVTG,307.53,T,,M,0.004,N,0.007,K,A*3C
$GPGGA,154015.00,4822.11332,N,01430.88498,E,1,07,1.15,481.3,M,45.2,M,,*5A
$GPGSA,A,3,23,24,20,04,25,11,01,,,,,,1.87,1.15,1.47*0C
$GPGSV,3,1,10,23,83,191,43,24,69,266,43,20,61,085,43,13,46,226,20*79
$GPGSV,3,2,10,04,31,308,51,25,27,050,48,17,22,247,24,11,20,162,38*76
$GPGSV,3,3,10,01,12,051,37,02,03,319,*70
$GPGLL,4822.11332,N,01430.88498,E,154015.00,A,A*60
$GPZDA,154015.00,20,03,2006,00,00*67
$GPRMC,154016.00,A,4822.11346,N,01430.88503,E,0.002,307.53,200306,,,A*63
$GPVTG,307.53,T,,M,0.002,N,0.004,K,A*39
$GPGGA,154016.00,4822.11346,N,01430.88503,E,1,07,1.15,481.3,M,45.2,M,,*59
$GPGSA,A,3,23,24,20,04,25,11,01,,,,,,1.87,1.15,1.47*0C
$GPGSV,3,1,10,23,83,191,43,24,69,266,43,20,61,085,43,13,46,226,17*7D
$GPGSV,3,2,10,04,31,308,51,25,27,050,48,17,22,247,24,11,20,162,38*76
$GPGSV,3,3,10,01,12,051,37,02,03,319,*70
$GPGLL,4822.11346,N,01430.88503,E,154016.00,A,A*63
$GPZDA,154016.00,20,03,2006,00,00*64
$GPRMC,154017.00,A,4822.11361,N,01430.88511,E,0.007,307.53,200306,,,A*61
$GPVTG,307.53,T,,M,0.007,N,0.012,K,A*3B
$GPGGA,154017.00,4822.11361,N,01430.88511,E,1,07,1.15,481.2,M,45.2,M,,*5F
$GPGSA,A,3,23,24,20,04,25,11,01,,,,,,1.87,1.15,1.47*0C
$GPGSV,3,1,10,23,83,191,44,24,69,266,43,20,61,085,43,13,46,226,16*7B
$GPGSV,3,2,10,04,31,308,51,25,27,050,48,17,22,247,24,11,20,162,38*76
$GPGSV,3,3,10,01,12,052,37,02,03,319,*73
$GPGLL,4822.11361,N,01430.88511,E,154017.00,A,A*64
$GPZDA,154017.00,20,03,2006,00,00*65
$GPRMC,154018.00,A,4822.11375,N,01430.88520,E,0.005,307.53,200306,,,A*6B
$GPVTG,307.53,T,,M,0.005,N,0.009,K,A*33
$GPGGA,154018.00,4822.11375,N,01430.88520,E,1,07,1.15,481.2,M,45.2,M,,*57
$GPGSA,A,3,23,24,20,04,25,11,01,,,,,,1.87,1.15,1.47*0C
$GPGSV,3,1,10,23,83,191,44,24,69,266,43,20,61,085,43,13,46,226,14*79
$GPGSV,3,2,10,04,31,308,51,25,27,050,48,17,22,247,24,11,20,162,38*76
$GPGSV,3,3,10,01,12,052,37,02,03,319,*73
$GPGLL,4822.11375,N,01430.88520,E,154018.00,A,A*6C
$GPZDA,154018.00,20,03,2006,00,00*6A
$GPRMC,154019.00,A,4822.11390,N,01430.88529,E,0.006,307.53,200306,,,A*6B
$GPVTG,307.53,T,,M,0.006,N,0.012,K,A*3A
$GPGGA,154019.00,4822.11390,N,01430.88529,E,1,07,1.15,481.1,M,45.2,M,,*57
$GPGSA,A,3,23,24,20,04,25,11,01,,,,,,1.87,1.15,1.47*0C
$GPGSV,3,1,10,23,83,191,44,24,69,266,43,20,61,085,43,13,46,226,13*7E
$GPGSV,3,2,10,04,31,308,51,25,27,050,48,17,22,247,24,11,20,162,38*76
$GPGSV,3,3,10,01,12,052,37,02,03,319,*73
$GPGLL,4822.11390,N,01430.88529,E,154019.00,A,A*6F
$GPZDA,154019.00,20,03,2006,00,00*6B
$GPRMC,154020.00,A,4822.11403,N,01430.88537,E,0.005,307.53,200306,,,A*60
$GPVTG,307.53,T,,M,0.005,N,0.008,K,A*32
$GPGGA,154020.00,4822.11403,N,01430.88537,E,1,07,1.15,481.1,M,45.2,M,,*5F
$GPGSA,A,3,23,24,20,04,25,11,01,,,,,,1.87,1.15,1.47*0C
$GPGSV,3,1,10,23,83,191,44,24,69,266,44,20,61,085,43,13,46,226,15*7F
$GPGSV,3,2,10,04,32,308,51,25,27,050,48,17,22,247,23,11,20,162,38*72
$GPGSV,3,3,10,01,12,052,37,02,03,319,*73
$GPGLL,4822.11403,N,01430.88537,E,154020.00,A,A*67
$GPZDA,154020.00,20,03,2006,00,00*61
$GPRMC,154021.00,A,4822.11417,N,01430.88545,E,0.004,307.53,200306,,,A*60
$GPVTG,307.53,T,,M,0.004,N,0.007,K,A*3C
$GPGGA,154021.00,4822.11417,N,01430.88545,E,1,07,1.15,481.1,M,45.2,M,,*5E
$GPGSA,A,3,23,24,20,04,25,11,01,,,,,,1.87,1.15,1.47*0C
$GPGSV,3,1,10,23,83,191,44,24,69,266,44,20,61,085,43,13,46,226,*7B
$GPGSV,3,2,10,04,32,308,51,25,27,050,48,17,22,247,,11,20,162,38*73
$GPGSV,3,3,10,01,12,052,37,02,03,319,*73
$GPGLL,4822.11417,N,01430.88545,E,154021.00,A,A*66
$GPZDA,154021.00,20,03,2006,00,00*60
$GPRMC,154022.00,A,4822.11429,N,01430.88553,E,0.007,307.53,200306,,,A*6A
$GPVTG,307.53,T,,M,0.007,N,0.013,K,A*3A
$GPGGA,154022.00,4822.11429,N,01430.88553,E,1,07,1.15,481.0,M,45.2,M,,*56
$GPGSA,A,3,23,24,20,04,25,11,01,,,,,,1.87,1.15,1.47*0C
$GPGSV,3,1,10,23,83,191,44,24,69,266,44,20,61,085,43,13,46,226,*7B
$GPGSV,3,2,10,04,32,308,51,25,27,050,48,17,22,247,,11,20,162,38*73
$GPGSV,3,3,10,01,12,052,37,02,03,319,*73
$GPGLL,4822.11429,N,01430.88553,E,154022.00,A,A*6F
$GPZDA,154022.00,20,03,2006,00,00*63
$GPRMC,154023.00,A,4822.11441,N,01430.88561,E,0.007,307.53,200306,,,A*64
$GPVTG,307.53,T,,M,0.007,N,0.012,K,A*3B
$GPGGA,154023.00,4822.11441,N,01430.88561,E,1,07,1.15,480.9,M,45.2,M,,*50
$GPGSA,A,3,23,24,20,04,25,11,01,,,,,,1.87,1.15,1.47*0C
$GPGSV,3,1,10,23,83,191,44,24,69,266,44,20,61,085,43,13,46,226,*7B
$GPGSV,3,2,10,04,32,308,51,25,27,050,48,17,22,247,,11,20,162,38*73
$GPGSV,3,3,10,01,12,052,37,02,03,319,*73
$GPGLL,4822.11441,N,01430.88561,E,154023.00,A,A*61
$GPZDA,154023.00,20,03,2006,00,00*62
$GPRMC,154024.00,A,4822.11452,N,01430.88568,E,0.006,307.53,200306,,,A*69
$GPVTG,307.53,T,,M,0.006,N,0.010,K,A*38
$GPGGA,154024.00,4822.11452,N,01430.88568,E,1,07,1.15,480.9,M,45.2,M,,*5C
$GPGSA,A,3,23,24,20,04,25,11,01,,,,,,1.87,1.15,1.47*0C
$GPGSV,3,1,10,23,83,191,44,24,69,266,44,20,61,085,43,13,46,226,*7B
$GPGSV,3,2,10,04,32,308,51,25,27,050,48,17,22,247,,11,20,162,38*73
$GPGSV,3,3,10,01,12,052,37,02,03,319,*73
$GPGLL,4822.11452,N,01430.88568,E,154024.00,A,A*6D
$GPZDA,154024.00,20,03,2006,00,00*65
$GPRMC,154025.00,A,4822.11463,N,01430.88573,E,0.005,307.53,200306,,,A*63
$GPVTG,307.53,T,,M,0.005,N,0.008,K,A*32
$GPGGA,154025.00,4822.11463,N,01430.88573,E,1,07,1.15,480.8,M,45.2,M,,*54
$GPGSA,A,3,23,24,20,04,25,11,01,,,,,,1.87,1.15,1.47*0C
$GPGSV,3,1,10,23,83,191,44,24,69,266,44,20,61,085,44,13,46,226,*7C
$GPGSV,3,2,10,04,32,308,51,25,27,050,48,17,22,247,,11,20,162,38*73
$GPGSV,3,3,10,01,12,052,37,02,03,319,*73
$GPGLL,4822.11463,N,01430.88573,E,154025.00,A,A*64
$GPZDA,154025.00,20,03,2006,00,00*64
$GPRMC,154026.00,A,4822.11474,N,01430.88579,E,0.007,307.53,200306,,,A*6E
$GPVTG,307.53,T,,M,0.007,N,0.013,K,A*3A
$GPGGA,154026.00,4822.11474,N,01430.88579,E,1,07,1.15,480.7,M,45.2,M,,*54
$GPGSA,A,3,23,24,20,04,25,11,01,,,,,,1.87,1.15,1.47*0C
$GPGSV,3,1,10,23,83,191,44,24,69,266,44,20,61,085,44,13,46,226,*7C
$GPGSV,3,2,10,04,32,308,51,25,27,050,48,17,22,247,,11,20,162,38*73
$GPGSV,3,3,10,01,12,052,37,02,03,319,*73
$GPGLL,4822.11474,N,01430.88579,E,154026.00,A,A*6B
$GPZDA,154026.00,20,03,2006,00,00*67
$GPRMC,154027.00,A,4822.11484,N,01430.88583,E,0.004,307.53,200306,,,A*66
$GPVTG,307.53,T,,M,0.004,N,0.007,K,A*3C
$GPGGA,154027.00,4822.11484,N,01430.88583,E,1,07,1.15,480.7,M,45.2,M,,*5F
$GPGSA,A,3,23,24,20,04,25,11,01,,,,,,1.87,1.15,1.47*0C
$GPGSV,3,1,10,23,83,191,44,24,69,266,44,20,61,085,44,13,46,226,*7C
$GPGSV,3,2,10,04,32,308,51,25,27,050,48,17,22,247,,11,20,162,38*73
$GPGSV,3,3,10,01,12,052,37,02,03,319,*73
$GPGLL,4822.11484,N,01430.88583,E,154027.00,A,A*60
$GPZDA,154027.00,20,03,2006,00,00*66
$GPRMC,154028.00,A,4822.11494,N,01430.88587,E,0.002,307.53,200306,,,A*6A
$GPVTG,307.53,T,,M,0.002,N,0.003,K,A*3E
$GPGGA,154028.00,4822.11494,N,01430.88587,E,1,07,1.15,480.6,M,45.2,M,,*54
$GPGSA,A,3,23,24,20,04,25,11,01,,,,,,1.87,1.15,1.47*0C
$GPGSV,3,1,10,23,83,191,44,24,69,266,44,20,61,085,44,13,46,226,*7C
$GPGSV,3,2,10,04,32,308,51,25,27,050,47,17,22,247,,11,20,162,38*7C
$GPGSV,3,3,10,01,12,052,37,02,03,319,*73
$GPGLL,4822.11494,N,01430.88587,E,154028.00,A,A*6A
$GPZDA,154028.00,20,03,2006,00,00*69
$GPRMC,154029.00,A,4822.11503,N,01430.88591,E,0.007,307.53,200306,,,A*66
$GPVTG,307.53,T,,M,0.007,N,0.013,K,A*3A
$GPGGA,154029.00,4822.11503,N,01430.88591,E,1,07,1.15,480.5,M,45.2,M,,*5E
$GPGSA,A,3,23,24,20,04,25,11,01,,,,,,1.87,1.15,1.47*0C
$GPGSV,3,1,10,23,83,191,44,24,69,266,44,20,61,085,44,13,47,227,*7C
$GPGSV,3,2,10,04,32,308,51,25,27,050,47,17,22,247,,11,20,162,38*7C
$GPGSV,3,3,10,01,12,052,37,02,03,319,*73
$GPGLL,4822.11503,N,01430.88591,E,154029.00,A,A*63
$GPZDA,154029.00,20,03,2006,00,00*68
$GPRMC,154030.00,A,4822.11512,N,01430.88592,E,0.003,307.53,200306,,,A*69
$GPVTG,307.53,T,,M,0.003,N,0.006,K,A*3A
$GPGGA,154030.00,4822.11512,N,01430.88592,E,1,07,1.15,480.4,M,45.2,M,,*54
$GPGSA,A,3,23,24,20,04,25,11,01,,,,,,1.87,1.15,1.47*0C
$GPGSV,3,1,10,23,83,191,44,24,69,266,44,20,61,085,44,13,47,227,*7C
$GPGSV,3,2,10,04,32,308,51,25,27,050,47,17,22,247,,11,20,162,38*7C
$GPGSV,3,3,10,01,12,052,37,02,03,319,*73
$GPGLL,4822.11512,N,01430.88592,E,154030.00,A,A*68
$GPZDA,154030.00,20,03,2006,00,00*60
$GPRMC,154031.00,A,4822.11521,N,01430.88591,E,0.005,307.53,200306,,,A*6D
$GPVTG,307.53,T,,M,0.005,N,0.008,K,A*32
$GPGGA,154031.00,4822.11521,N,01430.88591,E,1,07,1.15,480.3,M,45.2,M,,*51
$GPGSA,A,3,23,24,20,04,25,11,01,,,,,,1.87,1.15,1.47*0C
$GPGSV,3,1,10,23,83,191,44,24,69,266,44,20,61,085,45,13,47,227,*7D
$GPGSV,3,2,10,04,32,308,51,25,27,050,47,17,22,247,,11,20,162,38*7C
$GPGSV,3,3,10,01,12,052,37,02,03,319,*73
$GPGLL,4822.11521,N,01430.88591,E,154031.00,A,A*6A
$GPZDA,154031.00,20,03,2006,00,00*61
$GPRMC,154032.00,A,4822.11529,N,01430.88588,E,0.002,307.53,200306,,,A*69
$GPVTG,307.53,T,,M,0.002,N,0.004,K,A*39
$GPGGA,154032.00,4822.11529,N,01430.88588,E,1,07,1.15,480.3,M,45.2,M,,*52
$GPGSA,A,3,23,24,20,04,25,11,01,,,,,,1.87,1.15,1.47*0C
$GPGSV,3,1,10,23,83,191,44,24,69,266,44,20,61,085,45,13,47,227,*7D
$GPGSV,3,2,10,04,32,308,51,25,27,050,47,17,22,247,,11,20,162,38*7C
$GPGSV,3,3,10,01,12,052,37,02,03,319,*73
$GPGLL,4822.11529,N,01430.88588,E,154032.00,A,A*69
