$GNGGA,130655.00,4820.324795,N,01424.587458,E,1,10,0.7,354.6,M,44.8,M,,*7C
$GPGSV,3,1,10,02,34,054,30,12,35,098,36,25,75,082,31,29,78,240,30*70
$GPGSV,3,2,10,31,45,296,39,32,09,243,23,05,04,097,,06,05,030,*7E
$GPGSV,3,3,10,21,07,191,,26,07,291,*7C
$GLGSV,2,1,08,77,37,137,33,88,77,196,27,87,49,037,25,81,27,212,29*63
$GLGSV,2,2,08,78,85,336,,70,07,343,,79,30,319,,71,03,029,*65
$GAGSV,1,1,0,*74
$PQGSV,1,1,0,*73
$PQGSV,1,1,0,*73
$GNGSA,A,3,02,05,12,25,26,29,31,32,,,,,1.1,0.7,0.7,1*3E
$GNGSA,A,3,70,77,79,81,87,88,,,,,,,1.1,0.7,0.7,2*3D
$GNVTG,245.0,T,245.0,M,43.2,N,79.9,K,A*3F
$GNRMC,130656.00,A,4820.319037,N,01424.571007,E,43.2,245.0,280419,1.2,E,A*19
$GNGGA,130656.00,4820.319037,N,01424.571007,E,1,12,0.7,354.3,M,44.8,M,,*7E
$GPGSV,3,1,11,02,34,054,25,12,35,098,35,25,75,082,37,29,78,240,29*78
$GPGSV,3,2,11,31,45,296,35,32,09,243,25,05,04,097,,06,05,030,*75
$GPGSV,3,3,11,14,18,258,,21,07,191,,26,07,291,*4E
$GLGSV,2,1,07,77,37,137,31,87,49,037,28,81,27,212,33,78,85,336,*67
$GLGSV,2,2,07,70,07,343,,79,30,319,,71,03,029,*5E
$GAGSV,1,1,0,*74
$PQGSV,1,1,0,*73
$PQGSV,1,1,0,*73
$GNGSA,A,3,02,12,14,25,26,29,31,32,,,,,1.1,0.7,0.7,1*3E
$GNGSA,A,3,70,77,79,81,87,,,,,,,,1.1,0.7,0.7,2*3D
$GNVTG,247.4,T,247.4,M,45.6,N,84.5,K,A*33
$GNRMC,130657.00,A,4820.313458,N,01424.553853,E,45.6,247.4,280419,1.2,E,A*12
$GNGGA,130657.00,4820.313458,N,01424.553853,E,1,12,0.7,353.9,M,44.8,M,,*7C
$GPGSV,3,1,11,02,34,054,22,12,35,098,31,25,75,082,36,29,78,240,34*76
$GPGSV,3,2,11,31,45,296,32,32,09,243,24,05,04,097,,06,05,030,*73
$GPGSV,3,3,11,14,18,258,,21,07,191,,26,07,291,*4E
$GLGSV,2,1,08,78,85,336,26,77,37,137,21,79,30,319,27,87,49,037,26*6D
$GLGSV,2,2,08,81,27,212,32,70,07,343,,88,77,196,,71,03,029,*65
$GAGSV,1,1,0,*74
$PQGSV,1,1,0,*73
$PQGSV,1,1,0,*73
$GNGSA,A,3,02,12,14,25,26,29,31,32,,,,,1.0,0.7,0.7,1*3F
$GNGSA,A,3,70,77,79,81,87,88,,,,,,,1.0,0.7,0.7,2*3C
$GNVTG,253.6,T,253.6,M,47.3,N,87.7,K,A*35
$GNRMC,130658.00,A,4820.311132,N,01424.534605,E,47.3,253.6,280419,1.2,E,A*1A
$GNGGA,130658.00,4820.311132,N,01424.534605,E,1,12,0.7,354.1,M,44.8,M,,*7B
$GPGSV,3,1,10,12,35,098,34,25,75,082,37,29,78,240,34,31,45,296,26*7D
$GPGSV,3,2,10,32,09,243,25,05,04,097,,06,05,030,,14,18,258,*7F
$GPGSV,3,3,10,21,07,191,,26,07,291,*7C
$GLGSV,2,1,07,78,85,336,28,79,30,319,28,87,49,037,24,81,27,212,35*68
$GLGSV,2,2,07,70,07,343,,88,77,196,,71,03,029,*56
$GAGSV,1,1,0,*74
$PQGSV,1,1,0,*73
$PQGSV,1,1,0,*73
$GNGSA,A,3,12,14,25,26,29,31,32,,,,,,1.0,0.7,0.7,1*3D
$GNGSA,A,3,70,78,79,81,87,88,,,,,,,1.0,0.7,0.7,2*33
$GNVTG,265.1,T,265.1,M,46.7,N,86.4,K,A*32
$GNRMC,130659.00,A,4820.315527,N,01424.515419,E,46.7,265.1,280419,1.2,E,A*14
$GNGGA,130659.00,4820.315527,N,01424.515419,E,1,12,0.7,352.0,M,44.8,M,,*75
$GPGSV,3,1,11,02,34,054,28,12,35,098,30,25,75,082,39,29,78,240,35*73
$GPGSV,3,2,11,31,45,296,31,32,09,243,26,05,04,097,,06,05,030,*72
$GPGSV,3,3,11,14,18,258,,21,07,191,,26,07,291,*4E
$GLGSV,2,1,06,77,37,137,23,79,30,319,29,88,77,196,25,81,27,212,32*68
$GLGSV,2,2,06,70,07,343,,71,03,029,*69
$GAGSV,1,1,0,*74
$PQGSV,1,1,0,*73
$PQGSV,1,1,0,*73
$GNGSA,A,3,02,12,14,25,26,29,31,32,,,,,1.2,0.9,0.8,1*3C
$GNGSA,A,3,70,77,79,81,88,,,,,,,,1.2,0.9,0.8,2*30
$GNVTG,265.0,T,265.0,M,50.2,N,93.0,K,A*30
$GNRMC,130700.00,A,4820.314771,N,01424.495423,E,50.2,265.0,280419,1.2,E,A*1A
$GNGGA,130700.00,4820.314771,N,01424.495423,E,1,12,0.9,351.5,M,44.8,M,,*70
$GPGSV,3,1,11,02,34,054,29,12,35,098,32,25,75,082,38,29,78,240,36*72
$GPGSV,3,2,11,31,45,296,34,32,09,243,31,05,04,097,,06,05,030,*71
$GPGSV,3,3,11,14,18,258,,21,07,191,,26,07,291,*4E
$GLGSV,2,1,07,79,30,319,33,88,77,196,25,87,49,037,24,81,27,212,33*63
$GLGSV,2,2,07,78,85,336,,70,07,343,,71,03,029,*5C
$GAGSV,1,1,0,*74
$PQGSV,1,1,0,*73
$PQGSV,1,1,0,*73
$GNGSA,A,3,02,12,14,25,29,31,32,,,,,,1.2,0.9,0.8,1*38
$GNGSA,A,3,78,79,81,87,88,,,,,,,,1.2,0.9,0.8,2*37
$GNVTG,265.1,T,265.1,M,53.5,N,99.1,K,A*3F
$GNRMC,130701.00,A,4820.313665,N,01424.473746,E,53.5,265.1,280419,1.2,E,A*15
$GNGGA,130701.00,4820.313665,N,01424.473746,E,1,12,0.9,351.6,M,44.8,M,,*79
$GPGSV,3,1,11,02,34,054,30,12,35,098,30,25,75,082,36,29,78,240,37*77
$GPGSV,3,2,11,31,45,296,37,32,09,243,31,05,04,097,,06,05,030,*72
$GPGSV,3,3,11,14,18,258,,21,07,191,,26,07,291,*4E
$GLGSV,2,1,08,77,37,137,25,79,30,319,32,88,77,196,26,87,49,037,30*60
$GLGSV,2,2,08,81,27,212,33,78,85,336,,70,07,343,,71,03,029,*6E
$GAGSV,1,1,0,*74
$PQGSV,1,1,0,*73
$PQGSV,1,1,0,*73
$GNGSA,A,3,02,12,25,29,31,32,,,,,,,1.2,0.9,0.8,1*3D
$GNGSA,A,3,77,78,79,81,87,88,,,,,,,1.2,0.9,0.8,2*37
$GNVTG,265.3,T,265.3,M,56.5,N,104.7,K,A*09
$GNRMC,130702.00,A,4820.312458,N,01424.450636,E,56.5,265.3,280419,1.2,E,A*1B
$GNGGA,130702.00,4820.312458,N,01424.450636,E,1,12,0.9,350.5,M,44.8,M,,*72
$GPGSV,3,1,11,02,34,054,27,12,35,098,31,25,75,082,36,29,78,240,36*71
$GPGSV,3,2,11,31,45,296,39,32,09,243,25,05,04,097,,06,05,030,*79
$GPGSV,3,3,11,14,18,258,,21,07,191,,26,07,291,*4E
$GLGSV,2,1,08,77,37,137,25,79,30,319,33,88,77,196,26,87,49,037,32*63
$GLGSV,2,2,08,81,27,212,32,78,85,336,,70,07,343,,71,03,029,*6F
$GAGSV,1,1,0,*74
$PQGSV,1,1,0,*73
$PQGSV,1,1,0,*73
$GNGSA,A,3,02,12,25,29,31,32,,,,,,,1.2,0.9,0.8,1*3D
$GNGSA,A,3,77,78,79,81,87,88,,,,,,,1.2,0.9,0.8,2*37
$GNVTG,265.8,T,265.8,M,58.9,N,109.2,K,A*03
$GNRMC,130703.00,A,4820.312995,N,01424.426883,E,58.9,265.8,280419,1.2,E,A*1E
$GNGGA,130703.00,4820.312995,N,01424.426883,E,1,12,0.9,350.7,M,44.8,M,,*7C
$GPGSV,3,1,10,02,34,054,34,05,04,097,32,12,35,098,30,14,18,258,24*75
$GPGSV,3,2,10,25,75,082,36,29,78,240,39,31,45,296,38,06,05,030,*7E
$GPGSV,3,3,10,21,07,191,,26,07,291,*7C
$GLGSV,2,1,07,79,30,319,26,88,77,196,26,87,49,037,28,81,27,212,33*68
$GLGSV,2,2,07,78,85,336,,70,07,343,,71,03,029,*5C
$GAGSV,1,1,0,*74
$PQGSV,1,1,0,*73
$PQGSV,1,1,0,*73
$GNGSA,A,3,02,12,25,29,31,,,,,,,,1.1,0.8,0.7,1*31
$GNGSA,A,3,78,79,81,87,88,,,,,,,,1.1,0.8,0.7,2*3A
$GNVTG,267.0,T,267.0,M,58.6,N,108.5,K,A*0A
$GNRMC,130704.00,A,4820.312024,N,01424.402536,E,58.6,267.0,280419,1.2,E,A*1A
$GNGGA,130704.00,4820.312024,N,01424.402536,E,1,10,0.8,351.7,M,44.8,M,,*7F
$GPGSV,3,1,11,02,34,054,31,05,04,097,26,12,35,098,32,14,18,258,24*76
$GPGSV,3,2,11,25,75,082,30,29,78,240,37,31,45,296,41,06,05,030,*79
$GPGSV,3,3,11,21,07,191,,26,07,291,,32,09,243,*40
$GLGSV,2,1,07,88,77,196,29,87,49,037,27,81,27,212,33,78,85,336,*6E
$GLGSV,2,2,07,70,07,343,,77,37,137,,71,03,029,*59
$GAGSV,1,1,0,*74
$PQGSV,1,1,0,*73
$PQGSV,1,1,0,*73
$GNGSA,A,3,02,05,12,14,25,29,31,32,,,,,1.1,0.8,0.7,1*30
$GNGSA,A,3,77,78,81,87,88,,,,,,,,1.1,0.8,0.7,2*34
$GNVTG,267.6,T,267.6,M,58.3,N,107.9,K,A*0C
$GNRMC,130705.00,A,4820.311477,N,01424.377994,E,58.3,267.6,280419,1.2,E,A*18
$GNGGA,130705.00,4820.311477,N,01424.377994,E,1,12,0.8,352.2,M,44.8,M,,*7A
$GPGSV,3,1,10,02,34,054,26,05,04,097,30,12,35,098,32,25,75,082,25*7B
$GPGSV,3,2,10,29,78,240,37,31,45,296,42,06,05,030,,21,07,191,*7A
$GPGSV,3,3,10,26,07,291,,32,09,243,*7C
$GLGSV,2,1,08,79,30,319,28,88,77,196,28,87,49,037,24,81,27,212,31*69
$GLGSV,2,2,08,78,85,336,,70,07,343,,77,37,137,,71,03,029,*62
$GAGSV,1,1,0,*74
$PQGSV,1,1,0,*73
$PQGSV,1,1,0,*73
$GNGSA,A,3,02,05,12,25,29,31,32,,,,,,1.1,0.8,0.7,1*35
$GNGSA,A,3,77,79,81,87,88,,,,,,,,1.1,0.8,0.7,2*35
$GNVTG,267.7,T,267.7,M,59.0,N,109.3,K,A*0A
$GNRMC,130706.00,A,4820.310670,N,01424.353362,E,59.0,267.7,280419,1.2,E,A*19
$GNGGA,130706.00,4820.310670,N,01424.353362,E,1,12,0.8,352.0,M,44.8,M,,*7A
$GPGSV,3,1,11,02,34,054,33,05,04,097,27,12,35,098,34,25,75,082,35*7F
$GPGSV,3,2,11,29,78,240,40,31,45,296,39,06,05,030,,14,18,258,*79
$GPGSV,3,3,11,21,07,191,,26,07,291,,32,09,243,*40
$GLGSV,2,1,08,77,37,137,24,79,30,319,23,88,77,196,31,87,49,037,27*61
$GLGSV,2,2,08,81,27,212,30,78,85,336,,70,07,343,,71,03,029,*6D
$GAGSV,1,1,0,*74
$PQGSV,1,1,0,*73
$PQGSV,1,1,0,*73
$GNGSA,A,3,02,05,12,14,25,29,31,32,,,,,1.1,0.8,0.7,1*30
$GNGSA,A,3,77,79,81,87,88,,,,,,,,1.1,0.8,0.7,2*35
$GNVTG,268.2,T,268.2,M,59.9,N,110.9,K,A*01
$GNRMC,130707.00,A,4820.310449,N,01424.328629,E,59.9,268.2,280419,1.2,E,A*15
$GNGGA,130707.00,4820.310449,N,01424.328629,E,1,12,0.8,352.8,M,44.8,M,,*7D
$GPGSV,3,1,11,02,34,054,27,05,04,097,26,12,35,098,33,25,75,082,35*7C
$GPGSV,3,2,11,29,78,240,42,31,45,296,41,06,05,030,,14,18,258,*74
$GPGSV,3,3,11,21,07,191,,26,07,291,,32,09,243,*40
$GLGSV,2,1,07,77,37,137,24,88,77,196,31,87,49,037,30,81,27,212,31*60
$GLGSV,2,2,07,78,85,336,,70,07,343,,71,03,029,*5C
$GAGSV,1,1,0,*74
$PQGSV,1,1,0,*73
$PQGSV,1,1,0,*73
$GNGSA,A,3,02,05,12,14,25,29,31,32,,,,,1.1,0.8,0.7,1*30
$GNGSA,A,3,77,81,87,88,,,,,,,,,1.1,0.8,0.7,2*3B
$GNVTG,267.6,T,267.6,M,60.0,N,111.1,K,A*0B
$GNRMC,130708.00,A,4820.310023,N,01424.303953,E,60.0,267.6,280419,1.2,E,A*11
$GNGGA,130708.00,4820.310023,N,01424.303953,E,1,12,0.8,353.0,M,44.8,M,,*78
$GPGSV,3,1,11,02,34,054,31,05,04,097,30,12,35,098,34,25,75,082,37*79
$GPGSV,3,2,11,29,78,240,42,31,45,296,41,06,05,030,,14,18,258,*74
$GPGSV,3,3,11,21,07,191,,26,07,291,,32,09,243,*40
$GLGSV,2,1,08,77,37,137,24,79,30,319,26,88,77,196,32,87,49,037,30*61
$GLGSV,2,2,08,81,27,212,28,78,85,336,,70,07,343,,71,03,029,*64
$GAGSV,1,1,0,*74
$PQGSV,1,1,0,*73
$PQGSV,1,1,0,*73
$GNGSA,A,3,02,05,12,14,25,29,31,32,,,,,1.1,0.9,0.7,1*31
$GNGSA,A,3,77,79,81,87,88,,,,,,,,1.1,0.9,0.7,2*34
$GNVTG,267.8,T,267.8,M,59.7,N,110.5,K,A*03
$GNRMC,130709.00,A,4820.309285,N,01424.278856,E,59.7,267.8,280419,1.2,E,A*1C
$GNGGA,130709.00,4820.309285,N,01424.278856,E,1,12,0.9,353.9,M,44.8,M,,*7E
$GPGSV,3,1,11,02,34,054,33,05,04,097,30,12,35,098,34,25,75,082,37*7B
$GPGSV,3,2,11,29,78,240,42,31,45,296,42,32,09,243,26,06,05,030,*7D
$GPGSV,3,3,11,14,18,258,,21,07,191,,26,07,291,*4E
$GLGSV,2,1,07,79,30,319,26,88,77,196,32,87,49,037,32,81,27,212,29*6D
$GLGSV,2,2,07,78,85,336,,70,07,343,,71,03,029,*5C
$GAGSV,1,1,0,*74
$PQGSV,1,1,0,*73
$PQGSV,1,1,0,*73
$GNGSA,A,3,02,05,12,14,25,29,31,,,,,,1.1,0.8,0.7,1*31
$GNGSA,A,3,79,81,87,88,,,,,,,,,1.1,0.8,0.7,2*35
$GNVTG,268.0,T,268.0,M,59.2,N,109.6,K,A*0D
$GNRMC,130710.00,A,4820.308684,N,01424.254120,E,59.2,268.0,280419,1.2,E,A*14
$GNGGA,130710.00,4820.308684,N,01424.254120,E,1,11,0.8,354.6,M,44.8,M,,*7E
$GPGSV,3,1,11,02,34,054,33,05,04,097,26,12,35,098,35,25,75,082,37*7D
$GPGSV,3,2,11,26,07,291,26,29,78,240,42,31,45,296,41,32,09,243,26*73
$GPGSV,3,3,11,06,05,030,,14,18,258,,21,07,191,*47
$GLGSV,2,1,08,77,37,137,23,79,30,319,27,88,77,196,32,87,49,037,31*66
$GLGSV,2,2,08,81,27,212,31,78,85,336,,70,07,343,,71,03,029,*6C
$GAGSV,1,1,0,*74
$PQGSV,1,1,0,*73
$PQGSV,1,1,0,*73
$GNGSA,A,3,02,05,12,14,25,29,31,32,,,,,1.1,0.8,0.7,1*30
$GNGSA,A,3,77,79,81,87,88,,,,,,,,1.1,0.8,0.7,2*35
$GNVTG,268.1,T,268.1,M,58.5,N,108.3,K,A*0F
$GNRMC,130711.00,A,4820.308461,N,01424.229837,E,58.5,268.1,280419,1.2,E,A*1E
$GNGGA,130711.00,4820.308461,N,01424.229837,E,1,12,0.8,355.7,M,44.8,M,,*70
$GPGSV,3,1,11,02,34,054,36,05,04,097,31,12,35,098,35,25,75,082,37*7E
$GPGSV,3,2,11,26,07,291,24,29,78,240,42,31,45,296,41,32,09,243,24*73
$GPGSV,3,3,11,06,05,030,,14,18,258,,21,07,191,*47
$GLGSV,2,1,07,77,37,137,24,88,77,196,32,87,49,037,29,81,27,212,31*6B
$GLGSV,2,2,07,78,85,336,,70,07,343,,71,03,029,*5C
$GAGSV,1,1,0,*74
$PQGSV,1,1,0,*73
$PQGSV,1,1,0,*73
$GNGSA,A,3,02,05,12,25,26,29,31,32,,,,,1.1,0.8,0.7,1*31
$GNGSA,A,3,77,81,87,88,,,,,,,,,1.1,0.8,0.7,2*3B
$GNVTG,267.9,T,267.9,M,57.6,N,106.7,K,A*09
$GNRMC,130712.00,A,4820.307650,N,01424.205388,E,57.6,267.9,280419,1.2,E,A*18
$GNGGA,130712.00,4820.307650,N,01424.205388,E,1,12,0.8,356.7,M,44.8,M,,*7E
$GPGSV,3,1,11,02,34,054,34,05,04,097,25,12,35,098,36,25,75,082,35*78
$GPGSV,3,2,11,26,07,291,26,29,78,240,42,31,45,296,41,32,09,243,26*73
$GPGSV,3,3,11,06,05,030,,14,18,258,,21,07,191,*47
$GLGSV,2,1,08,77,37,137,25,88,77,196,31,87,49,037,27,81,27,212,27*6F
$GLGSV,2,2,08,78,85,336,,70,07,343,,79,30,319,,71,03,029,*65
$GAGSV,1,1,0,*74
$PQGSV,1,1,0,*73
$PQGSV,1,1,0,*73
$GNGSA,A,3,02,05,12,25,26,29,31,32,,,,,1.1,0.8,0.7,1*31
$GNGSA,A,3,77,79,81,87,88,,,,,,,,1.1,0.8,0.7,2*35
$GNVTG,267.5,T,267.5,M,56.5,N,104.7,K,A*09
$GNRMC,130713.00,A,4820.306900,N,01424.181701,E,56.5,267.5,280419,1.2,E,A*16
$GNGGA,130713.00,4820.306900,N,01424.181701,E,1,12,0.8,357.6,M,44.8,M,,*7E
$GPGSV,3,1,09,02,34,054,34,12,35,098,34,25,75,082,36,29,78,240,42*7C
$GPGSV,3,2,09,31,45,296,42,32,09,243,25,06,05,030,,14,18,258,*70
$GPGSV,3,3,09,21,07,191,*4D
$GLGSV,2,1,08,77,37,137,25,79,30,319,24,88,77,196,30,87,49,037,26*67
$GLGSV,2,2,08,81,27,212,33,78,85,336,,70,07,343,,71,03,029,*6E
$GAGSV,1,1,0,*74
$PQGSV,1,1,0,*73
$PQGSV,1,1,0,*73
$GNGSA,A,3,02,12,25,29,31,32,,,,,,,1.1,0.8,0.7,1*30
$GNGSA,A,3,77,79,81,87,88,,,,,,,,1.1,0.8,0.7,2*35
$GNVTG,267.6,T,267.6,M,55.8,N,103.4,K,A*03
$GNRMC,130714.00,A,4820.306075,N,01424.158303,E,55.8,267.6,280419,1.2,E,A*15
$GNGGA,130714.00,4820.306075,N,01424.158303,E,1,11,0.8,358.6,M,44.8,M,,*7C
$GPGSV,3,1,10,02,34,054,35,05,04,097,24,12,35,098,32,14,18,258,24*71
$GPGSV,3,2,10,25,75,082,27,29,78,240,42,31,45,296,42,06,05,030,*7F
$GPGSV,3,3,10,21,07,191,,26,07,291,*7C
$GLGSV,2,1,08,77,37,137,25,79,30,319,33,88,77,196,27,87,49,037,32*62
$GLGSV,2,2,08,81,27,212,35,78,85,336,,70,07,343,,71,03,029,*68
$GAGSV,1,1,0,*74
$PQGSV,1,1,0,*73
$PQGSV,1,1,0,*73
$GNGSA,A,3,02,05,12,25,26,29,31,,,,,,1.0,0.8,0.7,1*31
$GNGSA,A,3,77,79,81,87,88,,,,,,,,1.0,0.8,0.7,2*34
$GNVTG,266.8,T,266.8,M,56.4,N,104.4,K,A*0B
$GNRMC,130715.00,A,4820.304927,N,01424.134899,E,56.4,266.8,280419,1.2,E,A*1A
$GNGGA,130715.00,4820.304927,N,01424.134899,E,1,12,0.8,359.2,M,44.8,M,,*75
$GPGSV,3,1,10,02,34,054,34,05,04,097,26,12,35,098,31,25,75,082,27*7E
$GPGSV,3,2,10,29,78,240,40,31,45,296,42,06,05,030,,21,07,191,*7A
$GPGSV,3,3,10,26,07,291,,32,09,243,*7C
$GLGSV,2,1,08,77,37,137,26,79,30,319,33,88,77,196,27,87,49,037,33*60
$GLGSV,2,2,08,81,27,212,34,78,85,336,,70,07,343,,71,03,029,*69
$GAGSV,1,1,0,*74
$PQGSV,1,1,0,*73
$PQGSV,1,1,0,*73
$GNGSA,A,3,02,05,12,25,26,29,31,32,,,,,1.0,0.8,0.7,1*30
$GNGSA,A,3,77,79,81,87,88,,,,,,,,1.0,0.8,0.7,2*34
$GNVTG,266.6,T,266.6,M,56.7,N,105.0,K,A*0D
$GNRMC,130716.00,A,4820.303789,N,01424.111294,E,56.7,266.6,280419,1.2,E,A*19
$GNGGA,130716.00,4820.303789,N,01424.111294,E,1,12,0.8,359.5,M,44.8,M,,*7C
$GPGSV,3,1,11,02,34,054,35,05,04,097,24,12,35,098,30,14,18,258,24*72
$GPGSV,3,2,11,25,75,082,24,29,78,240,40,31,45,296,41,32,09,243,24*77
$GPGSV,3,3,11,06,05,030,,21,07,191,,26,07,291,*4D
$GLGSV,2,1,08,77,37,137,22,79,30,319,35,88,77,196,26,87,49,037,33*63
$GLGSV,2,2,08,81,27,212,35,78,85,336,,70,07,343,,71,03,029,*68
$GAGSV,1,1,0,*74
$PQGSV,1,1,0,*73
$PQGSV,1,1,0,*73
$GNGSA,A,3,02,05,12,14,25,26,29,31,32,,,,1.0,0.8,0.7,1*35
$GNGSA,A,3,77,79,81,87,88,,,,,,,,1.0,0.8,0.7,2*34
$GNVTG,266.2,T,266.2,M,56.9,N,105.4,K,A*07
$GNRMC,130717.00,A,4820.302906,N,01424.088460,E,56.9,266.2,280419,1.2,E,A*16
$GNGGA,130717.00,4820.302906,N,01424.088460,E,1,12,0.8,359.9,M,44.8,M,,*75
$GPGSV,3,1,11,02,34,054,35,05,04,097,27,12,35,098,30,14,18,258,24*71
$GPGSV,3,2,11,21,07,191,28,25,75,082,26,29,78,240,40,31,45,296,41*79
$GPGSV,3,3,11,32,09,243,26,06,05,030,,26,07,291,*49
$GLGSV,2,1,08,77,37,137,24,79,30,319,35,88,77,196,27,87,49,037,32*65
$GLGSV,2,2,08,81,27,212,34,78,85,336,,70,07,343,,71,03,029,*69
$GAGSV,1,1,0,*74
$PQGSV,1,1,0,*73
$PQGSV,1,1,0,*73
$GNGSA,A,3,02,05,12,14,25,26,29,31,32,,,,1.0,0.7,0.7,1*3A
$GNGSA,A,3,77,79,81,87,88,,,,,,,,1.0,0.7,0.7,2*3B
$GNVTG,266.1,T,266.1,M,57.1,N,105.8,K,A*02
$GNRMC,130718.00,A,4820.301882,N,01424.064970,E,57.1,266.1,280419,1.2,E,A*13
$GNGGA,130718.00,4820.301882,N,01424.064970,E,1,12,0.7,361.3,M,44.8,M,,*74
$GPGSV,3,1,09,02,34,054,32,05,04,097,29,12,35,098,32,25,75,082,30*7A
$GPGSV,3,2,09,29,78,240,41,31,45,296,40,32,09,243,31,06,05,030,*73
$GPGSV,3,3,09,26,07,291,*49
$GLGSV,2,1,06,79,30,319,34,88,77,196,29,81,27,212,36,78,85,336,*68
$GLGSV,2,2,06,70,07,343,,71,03,029,*69
$GAGSV,1,1,0,*74
$PQGSV,1,1,0,*73
$PQGSV,1,1,0,*73
$GNGSA,A,3,02,05,12,25,26,29,31,32,,,,,1.0,0.7,0.7,1*3F
$GNGSA,A,2,79,81,88,,,,,,,,,,1.0,0.7,0.7,2*35
$GNVTG,265.6,T,265.6,M,57.2,N,105.9,K,A*00
$GNRMC,130719.00,A,4820.300267,N,01424.040758,E,57.2,265.6,280419,1.2,E,A*17
$GNGGA,130719.00,4820.300267,N,01424.040758,E,1,11,0.7,361.3,M,44.8,M,,*74
$GPGSV,3,1,10,02,34,054,34,05,04,097,29,12,35,098,33,25,75,082,34*71
$GPGSV,3,2,10,29,78,240,42,31,45,296,42,32,09,243,28,14,18,258,*71
$GPGSV,3,3,10,21,07,191,,26,07,291,*7C
$GLGSV,2,1,08,77,37,137,24,79,30,319,23,88,77,196,28,81,27,212,34*60
$GLGSV,2,2,08,78,85,336,,70,07,343,,87,49,037,,71,03,029,*65
$GAGSV,1,1,0,*74
$PQGSV,1,1,0,*73
$PQGSV,1,1,0,*73
$GNGSA,A,3,02,05,12,14,21,25,29,31,32,,,,1.0,0.7,0.7,1*3D
$GNGSA,A,3,77,79,81,87,88,,,,,,,,1.0,0.7,0.7,2*3B
$GNVTG,265.2,T,265.2,M,57.4,N,106.2,K,A*0E
$GNRMC,130720.00,A,4820.298514,N,01424.016738,E,57.4,265.2,280419,1.2,E,A*19
$GNGGA,130720.00,4820.298514,N,01424.016738,E,1,12,0.7,361.6,M,44.8,M,,*7E
$GPGSV,3,1,11,02,34,054,35,05,04,097,24,12,35,098,34,25,75,082,34*7B
$GPGSV,3,2,11,29,78,240,42,31,45,296,42,32,09,243,34,06,05,030,*7E
$GPGSV,3,3,11,14,18,258,,21,07,191,,26,07,291,*4E
$GLGSV,2,1,07,77,37,137,25,88,77,196,29,81,27,212,35,78,85,336,*6D
$GLGSV,2,2,07,70,07,343,,87,49,037,,71,03,029,*5E
$GAGSV,1,1,0,*74
$PQGSV,1,1,0,*73
$PQGSV,1,1,0,*73
$GNGSA,A,3,02,05,12,14,21,25,29,31,32,,,,1.0,0.7,0.7,1*3D
$GNGSA,A,3,77,81,87,88,,,,,,,,,1.0,0.7,0.7,2*35
$GNVTG,265.0,T,265.0,M,57.2,N,106.0,K,A*0A
$GNRMC,130721.00,A,4820.297222,N,01423.992858,E,57.2,265.0,280419,1.2,E,A*1A
$GNGGA,130721.00,4820.297222,N,01423.992858,E,1,12,0.7,362.9,M,44.8,M,,*75
$GPGSV,3,1,11,02,34,054,35,05,04,097,31,12,35,098,34,25,75,082,34*7F
$GPGSV,3,2,11,29,78,240,42,31,45,296,42,32,09,243,32,06,05,030,*78
$GPGSV,3,3,11,14,18,258,,21,07,191,,26,07,291,*4E
$GLGSV,2,1,08,77,37,137,28,79,30,319,24,88,77,196,28,81,27,212,34*6B
$GLGSV,2,2,08,78,85,336,,70,07,343,,87,49,037,,71,03,029,*65
$GAGSV,1,1,0,*74
$PQGSV,1,1,0,*73
$PQGSV,1,1,0,*73
$GNGSA,A,3,02,05,12,14,21,25,29,31,32,,,,1.0,0.7,0.7,1*3D
$GNGSA,A,3,77,79,81,87,88,,,,,,,,1.0,0.7,0.7,2*3B
$GNVTG,264.9,T,264.9,M,57.4,N,106.3,K,A*0F
$GNRMC,130722.00,A,4820.295963,N,01423.969214,E,57.4,264.9,280419,1.2,E,A*1D
$GNGGA,130722.00,4820.295963,N,01423.969214,E,1,12,0.7,365.0,M,44.8,M,,*72
$GPGSV,3,1,11,02,34,054,35,05,04,097,27,12,35,098,32,25,75,082,35*7F
$GPGSV,3,2,11,29,78,240,41,31,45,296,42,32,09,243,28,06,05,030,*70
$GPGSV,3,3,11,14,18,258,,21,07,191,,26,07,291,*4E
$GLGSV,2,1,07,77,37,137,27,88,77,196,26,87,49,037,23,81,27,212,33*65
$GLGSV,2,2,07,78,85,336,,70,07,343,,71,03,029,*5C
$GAGSV,1,1,0,*74
$PQGSV,1,1,0,*73
$PQGSV,1,1,0,*73
$GNGSA,A,3,02,05,12,14,21,25,29,31,32,,,,1.0,0.7,0.7,1*3D
$GNGSA,A,3,77,81,87,88,,,,,,,,,1.0,0.7,0.7,2*35
$GNVTG,264.9,T,264.9,M,57.9,N,107.2,K,A*02
$GNRMC,130723.00,A,4820.294601,N,01423.945098,E,57.9,264.9,280419,1.2,E,A*13
$GNGGA,130723.00,4820.294601,N,01423.945098,E,1,12,0.7,366.1,M,44.8,M,,*73
$GPGSV,3,1,11,02,34,054,34,05,04,097,29,12,35,098,34,14,18,258,25*7B
$GPGSV,3,2,11,25,75,082,35,29,78,240,42,31,45,296,41,32,09,243,31*71
$GPGSV,3,3,11,06,05,030,,21,07,191,,26,07,291,*4D
$GLGSV,2,1,08,70,07,343,25,77,37,137,30,88,77,196,26,87,49,037,24*65
$GLGSV,2,2,08,81,27,212,31,78,85,336,,79,30,319,,71,03,029,*6E
$GAGSV,1,1,0,*74
$PQGSV,1,1,0,*73
$PQGSV,1,1,0,*73
$GNGSA,A,3,02,05,12,14,21,25,29,31,32,,,,1.0,0.7,0.7,1*3D
$GNGSA,A,3,77,79,81,87,88,,,,,,,,1.0,0.7,0.7,2*3B
$GNVTG,264.4,T,264.4,M,58.7,N,108.8,K,A*06
$GNRMC,130724.00,A,4820.292836,N,01423.920798,E,58.7,264.4,280419,1.2,E,A*10
$GNGGA,130724.00,4820.292836,N,01423.920798,E,1,12,0.7,367.3,M,44.8,M,,*7F
$GPGSV,3,1,10,02,34,054,35,05,04,097,31,12,35,098,33,14,18,258,25*75
$GPGSV,3,2,10,25,75,082,33,29,78,240,43,31,45,296,40,06,05,030,*79
$GPGSV,3,3,10,21,07,191,,26,07,291,*7C
$GLGSV,2,1,07,77,37,137,27,88,77,196,27,87,49,037,24,81,27,212,33*63
$GLGSV,2,2,07,78,85,336,,79,30,319,,71,03,029,*5E
$GAGSV,1,1,0,*74
$PQGSV,1,1,0,*73
$PQGSV,1,1,0,*73
$GNGSA,A,3,02,05,12,14,25,29,31,,,,,,1.0,0.7,0.7,1*3F
$GNGSA,A,3,77,79,81,87,88,,,,,,,,1.0,0.7,0.7,2*3B
$GNVTG,264.0,T,264.0,M,59.5,N,110.3,K,A*07
$GNRMC,130725.00,A,4820.291166,N,01423.895997,E,59.5,264.0,280419,1.2,E,A*17
$GNGGA,130725.00,4820.291166,N,01423.895997,E,1,12,0.7,368.4,M,44.8,M,,*77
$GPGSV,3,1,10,02,33,054,34,05,04,097,28,12,35,099,32,25,74,085,22*76
$GPGSV,3,2,10,29,78,241,43,31,45,296,41,32,09,243,26,06,04,030,*7E
$GPGSV,3,3,10,21,08,191,,26,07,291,*73
$GLGSV,2,1,07,77,37,137,29,79,30,319,27,88,77,196,24,81,27,212,31*6F
$GLGSV,2,2,07,78,85,336,,70,07,343,,71,03,029,*5C
$GAGSV,1,1,0,*74
$PQGSV,1,1,0,*73
$PQGSV,1,1,0,*73
$GNGSA,A,3,02,05,12,25,29,31,32,,,,,,1.0,0.7,0.7,1*3B
$GNGSA,A,3,70,77,79,81,88,,,,,,,,1.0,0.7,0.7,2*33
$GNVTG,263.7,T,263.7,M,61.1,N,113.1,K,A*09
$GNRMC,130726.00,A,4820.288752,N,01423.870406,E,61.1,263.7,280419,1.2,E,A*1C
$GNGGA,130726.00,4820.288752,N,01423.870406,E,1,12,0.7,368.5,M,44.8,M,,*72
$GPGSV,3,1,10,02,33,054,34,12,35,099,34,14,17,258,26,25,74,085,24*7B
$GPGSV,3,2,10,29,78,241,42,31,45,296,40,32,09,243,27,06,04,030,*7F
$GPGSV,3,3,10,21,08,191,,26,07,291,*73
$GLGSV,2,1,07,77,37,137,29,79,30,319,28,81,27,212,30,78,85,336,*6D
$GLGSV,2,2,07,70,07,343,,87,49,037,,71,03,029,*5E
$GAGSV,1,1,0,*74
$PQGSV,1,1,0,*73
$PQGSV,1,1,0,*73
$GNGSA,A,3,02,12,14,25,29,31,32,,,,,,1.0,0.7,0.7,1*3B
$GNGSA,A,3,70,77,79,81,87,,,,,,,,1.0,0.7,0.7,2*3C
$GNVTG,263.3,T,263.3,M,61.9,N,114.6,K,A*01
$GNRMC,130727.00,A,4820.286471,N,01423.844638,E,61.9,263.3,280419,1.2,E,A*15
$GNGGA,130727.00,4820.286471,N,01423.844638,E,1,12,0.7,368.8,M,44.8,M,,*7A
$GPGSV,3,1,11,02,33,054,30,05,04,097,29,12,35,099,30,14,17,258,25*72
$GPGSV,3,2,11,25,74,085,29,29,78,241,42,31,45,296,41,32,09,243,25*7E
$GPGSV,3,3,11,06,04,030,,21,08,191,,26,07,291,*43
$GLGSV,2,1,08,77,37,137,32,79,30,319,26,88,77,196,28,81,27,212,31*67
$GLGSV,2,2,08,78,85,336,,70,07,343,,87,49,037,,71,03,029,*65
$GAGSV,1,1,0,*74
$PQGSV,1,1,0,*73
$PQGSV,1,1,0,*73
$GNGSA,A,3,02,05,12,14,25,29,31,32,,,,,1.0,0.7,0.7,1*3E
$GNGSA,A,3,70,77,79,81,87,88,,,,,,,1.0,0.7,0.7,2*3C
$GNVTG,263.3,T,263.3,M,61.0,N,113.0,K,A*09
$GNRMC,130728.00,A,4820.284797,N,01423.818954,E,61.0,263.3,280419,1.2,E,A*16
$GNGGA,130728.00,4820.284797,N,01423.818954,E,1,12,0.7,370.0,M,44.9,M,,*70
$GPGSV,3,1,11,02,33,054,31,05,04,097,34,12,35,099,30,14,17,258,23*79
$GPGSV,3,2,11,25,74,085,34,29,78,241,41,31,45,296,39,32,09,243,27*7C
$GPGSV,3,3,11,06,04,030,,21,08,191,,26,07,291,*43
$GLGSV,2,1,07,77,37,137,31,88,77,196,26,87,49,037,26,81,27,212,27*62
$GLGSV,2,2,07,78,85,336,,70,07,343,,71,03,029,*5C
$GAGSV,1,1,0,*74
$PQGSV,1,1,0,*73
$PQGSV,1,1,0,*73
$GNGSA,A,3,02,05,12,14,25,29,31,32,,,,,1.0,0.7,0.7,1*3E
$GNGSA,A,3,70,77,81,87,88,,,,,,,,1.0,0.7,0.7,2*32
$GNVTG,262.5,T,262.5,M,61.3,N,113.4,K,A*0E
$GNRMC,130729.00,A,4820.282917,N,01423.793369,E,61.3,262.5,280419,1.2,E,A*1B
$GNGGA,130729.00,4820.282917,N,01423.793369,E,1,12,0.7,370.7,M,44.9,M,,*7E
$GPGSV,3,1,11,02,33,054,25,05,04,097,34,12,35,099,32,14,17,258,26*7B
$GPGSV,3,2,11,25,74,085,33,29,78,241,42,31,45,296,39,32,09,243,26*79
$GPGSV,3,3,11,06,04,030,,21,08,191,,26,07,291,*43
$GLGSV,2,1,08,77,37,137,28,88,77,196,26,87,49,037,32,81,27,212,28*6F
$GLGSV,2,2,08,78,85,336,,70,07,343,,79,30,319,,71,03,029,*65
$GAGSV,1,1,0,*74
$PQGSV,1,1,0,*73
$PQGSV,1,1,0,*73
$GNGSA,A,3,02,05,12,14,25,29,31,32,,,,,1.1,0.8,0.7,1*30
$GNGSA,A,3,70,77,79,81,87,88,,,,,,,1.1,0.8,0.7,2*32
$GNVTG,261.1,T,261.1,M,61.9,N,114.7,K,A*00
$GNRMC,130730.00,A,4820.280697,N,01423.768212,E,61.9,261.1,280419,1.2,E,A*12
$GNGGA,130730.00,4820.280697,N,01423.768212,E,1,12,0.8,371.7,M,44.9,M,,*74
$GPGSV,3,1,10,02,33,054,24,05,04,097,31,12,35,099,32,14,17,258,30*79
$GPGSV,3,2,10,25,74,085,34,29,78,241,42,31,45,296,40,06,04,030,*79
$GPGSV,3,3,10,21,08,191,,26,07,291,*73
$GLGSV,2,1,08,77,37,137,26,88,77,196,23,87,49,037,33,81,27,212,32*6E
$GLGSV,2,2,08,78,85,336,,70,07,343,,79,30,319,,71,03,029,*65
$GAGSV,1,1,0,*74
$PQGSV,1,1,0,*73
$PQGSV,1,1,0,*73
$GNGSA,A,3,02,05,12,14,25,29,31,,,,,,1.1,0.8,0.7,1*31
$GNGSA,A,3,77,79,81,87,88,,,,,,,,1.1,0.8,0.7,2*35
$GNVTG,260.4,T,260.4,M,62.2,N,115.1,K,A*0F
$GNRMC,130731.00,A,4820.278215,N,01423.742827,E,62.2,260.4,280419,1.2,E,A*12
$GNGGA,130731.00,4820.278215,N,01423.742827,E,1,12,0.8,372.6,M,44.9,M,,*7A
$GPGSV,3,1,10,05,04,097,32,12,35,099,34,14,17,258,29,25,74,085,34*7F
$GPGSV,3,2,10,29,78,241,42,31,45,296,39,06,04,030,,21,08,191,*7B
$GPGSV,3,3,10,26,07,291,,32,09,243,*7C
$GLGSV,2,1,08,70,07,343,24,77,37,137,26,88,77,196,26,87,49,037,33*65
$GLGSV,2,2,08,81,27,212,33,78,85,336,,79,30,319,,71,03,029,*6C
$GAGSV,1,1,0,*74
$PQGSV,1,1,0,*73
$PQGSV,1,1,0,*73
$GNGSA,A,3,05,12,14,25,29,31,32,,,,,,1.0,0.7,0.7,1*3C
$GNGSA,A,3,77,79,81,87,88,,,,,,,,1.0,0.7,0.7,2*3B
$GNVTG,259.6,T,259.6,M,62.5,N,115.7,K,A*0E
$GNRMC,130732.00,A,4820.275059,N,01423.717177,E,62.5,259.6,280419,1.2,E,A*15
$GNGGA,130732.00,4820.275059,N,01423.717177,E,1,12,0.7,374.1,M,44.9,M,,*7C
$GPGSV,3,1,11,05,04,097,31,12,35,099,31,14,17,258,30,25,74,085,34*70
$GPGSV,3,2,11,29,78,241,42,31,45,296,39,32,09,243,24,02,33,054,*71
$GPGSV,3,3,11,06,04,030,,21,08,191,,26,07,291,*43
$GLGSV,2,1,07,77,37,137,23,88,77,196,24,87,49,037,33,81,27,212,33*62
$GLGSV,2,2,07,78,85,336,,79,30,319,,71,03,029,*5E
$GAGSV,1,1,0,*74
$PQGSV,1,1,0,*73
$PQGSV,1,1,0,*73
$GNGSA,A,3,02,05,12,14,25,29,31,32,,,,,1.0,0.7,0.7,1*3E
$GNGSA,A,3,77,79,81,87,88,,,,,,,,1.0,0.7,0.7,2*3B
$GNVTG,259.6,T,259.6,M,63.5,N,117.5,K,A*0F
$GNRMC,130733.00,A,4820.271589,N,01423.691172,E,63.5,259.6,280419,1.2,E,A*13
$GNGGA,130733.00,4820.271589,N,01423.691172,E,1,12,0.7,374.5,M,44.9,M,,*7F
$GPGSV,3,1,11,05,04,097,31,12,35,099,33,14,17,258,28,25,74,085,33*7C
$GPGSV,3,2,11,29,78,241,42,31,45,296,38,32,09,243,24,02,33,054,*70
$GPGSV,3,3,11,06,04,030,,21,08,191,,26,07,291,*43
$GLGSV,2,1,08,77,37,137,26,88,77,196,26,87,49,037,33,81,27,212,30*69
$GLGSV,2,2,08,78,85,336,,70,07,343,,79,30,319,,71,03,029,*65
$GAGSV,1,1,0,*74
$PQGSV,1,1,0,*73
$PQGSV,1,1,0,*73
$GNGSA,A,3,02,05,12,14,25,29,31,32,,,,,1.0,0.8,0.7,1*31
$GNGSA,A,3,70,77,79,81,87,88,,,,,,,1.0,0.8,0.7,2*33
$GNVTG,260.3,T,260.3,M,64.2,N,118.9,K,A*0C
$GNRMC,130734.00,A,4820.269368,N,01423.664977,E,64.2,260.3,280419,1.2,E,A*1C
$GNGGA,130734.00,4820.269368,N,01423.664977,E,1,12,0.8,375.1,M,44.9,M,,*75
$GPGSV,3,1,11,05,04,097,29,12,35,099,33,14,17,258,28,25,74,085,33*75
$GPGSV,3,2,11,29,78,241,43,31,45,296,39,32,09,243,24,02,33,054,*70
$GPGSV,3,3,11,06,04,030,,21,08,191,,26,07,291,*43
$GLGSV,2,1,08,77,37,137,25,88,77,196,27,87,49,037,34,81,27,212,31*6D
$GLGSV,2,2,08,78,85,336,,70,07,343,,79,30,319,,71,03,029,*65
$GAGSV,1,1,0,*74
$PQGSV,1,1,0,*73
$PQGSV,1,1,0,*73
$GNGSA,A,3,02,05,12,14,25,29,31,32,,,,,1.0,0.8,0.7,1*31
$GNGSA,A,3,70,77,81,87,88,,,,,,,,1.0,0.8,0.7,2*3D
$GNVTG,260.2,T,260.2,M,64.6,N,119.6,K,A*06
$GNRMC,130735.00,A,4820.266287,N,01423.638562,E,64.6,260.2,280419,1.2,E,A*16
$GNGGA,130735.00,4820.266287,N,01423.638562,E,1,12,0.8,375.8,M,44.9,M,,*73
$GPGSV,3,1,10,05,04,097,26,12,35,099,34,14,17,258,28,25,74,085,32*7D
$GPGSV,3,2,10,29,78,241,43,31,45,296,39,02,33,054,,06,04,030,*7B
$GPGSV,3,3,10,21,08,191,,26,07,291,*73
$GLGSV,2,1,07,88,77,196,26,87,49,037,34,81,27,212,30,78,85,336,*60
$GLGSV,2,2,07,70,07,343,,79,30,319,,71,03,029,*5E
$GAGSV,1,1,0,*74
$PQGSV,1,1,0,*73
$PQGSV,1,1,0,*73
$GNGSA,A,3,02,05,12,14,25,29,31,,,,,,1.0,0.8,0.7,1*30
$GNGSA,A,3,70,81,87,88,,,,,,,,,1.0,0.8,0.7,2*3D
$GNVTG,260.3,T,260.3,M,64.9,N,120.2,K,A*07
$GNRMC,130736.00,A,4820.263227,N,01423.612288,E,64.9,260.3,280419,1.2,E,A*1F
$GNGGA,130736.00,4820.263227,N,01423.612288,E,1,11,0.8,376.3,M,44.9,M,,*7F
$GPGSV,3,1,10,12,35,099,34,14,17,258,28,25,74,085,30,29,78,241,42*71
$GPGSV,3,2,10,31,45,296,40,32,09,243,23,02,33,054,,06,04,030,*7D
$GPGSV,3,3,10,21,08,191,,26,07,291,*73
$GLGSV,2,1,08,77,37,137,24,88,77,196,27,87,49,037,34,81,27,212,30*6D
$GLGSV,2,2,08,78,85,336,,70,07,343,,79,30,319,,71,03,029,*65
$GAGSV,1,1,0,*74
$PQGSV,1,1,0,*73
$PQGSV,1,1,0,*73
$GNGSA,A,3,02,12,14,25,29,31,32,,,,,,1.0,0.8,0.7,1*34
$GNGSA,A,3,70,77,81,87,88,,,,,,,,1.0,0.8,0.7,2*3D
$GNVTG,260.1,T,260.1,M,64.9,N,120.2,K,A*07
$GNRMC,130737.00,A,4820.260337,N,01423.586273,E,64.9,260.1,280419,1.2,E,A*15
$GNGGA,130737.00,4820.260337,N,01423.586273,E,1,12,0.8,377.7,M,44.9,M,,*71
$GPGSV,3,1,10,02,33,054,23,05,04,097,26,12,35,099,34,14,17,258,30*7E
$GPGSV,3,2,10,25,74,085,29,29,78,241,43,31,45,296,37,06,04,030,*74
$GPGSV,3,3,10,21,08,191,,26,07,291,*73
$GLGSV,2,1,08,77,37,137,25,88,77,196,26,87,49,037,35,81,27,212,31*6D
$GLGSV,2,2,08,78,85,336,,70,07,343,,79,30,319,,71,03,029,*65
$GAGSV,1,1,0,*74
$PQGSV,1,1,0,*73
$PQGSV,1,1,0,*73
$GNGSA,A,3,05,12,14,25,29,31,,,,,,,1.2,1.0,0.7,1*39
$GNGSA,A,3,70,77,81,87,88,,,,,,,,1.2,1.0,0.7,2*36
$GNVTG,259.7,T,259.7,M,64.9,N,120.2,K,A*07
$GNRMC,130738.00,A,4820.256768,N,01423.559692,E,64.9,259.7,280419,1.2,E,A*14
$GNGGA,130738.00,4820.256768,N,01423.559692,E,1,11,1.0,378.2,M,44.9,M,,*7C
$GPGSV,3,1,10,05,04,097,28,12,35,099,34,14,17,258,30,25,74,085,29*70
$GPGSV,3,2,10,29,78,241,43,31,45,296,39,06,04,030,,21,08,191,*7A
$GPGSV,3,3,10,26,07,291,,32,09,243,*7C
$GLGSV,2,1,08,77,37,137,25,88,77,196,27,87,49,037,36,81,27,212,31*6F
$GLGSV,2,2,08,78,85,336,,70,07,343,,79,30,319,,71,03,029,*65
$GAGSV,1,1,0,*74
$PQGSV,1,1,0,*73
$PQGSV,1,1,0,*73
$GNGSA,A,3,05,12,14,25,29,31,32,,,,,,1.2,1.0,0.7,1*38
$GNGSA,A,3,77,81,87,88,,,,,,,,,1.2,1.0,0.7,2*31
$GNVTG,259.3,T,259.3,M,64.8,N,120.1,K,A*05
$GNRMC,130739.00,A,4820.252706,N,01423.532928,E,64.8,259.3,280419,1.2,E,A*1F
$GNGGA,130739.00,4820.252706,N,01423.532928,E,1,11,1.0,378.1,M,44.9,M,,*71
$GPGSV,3,1,11,02,33,054,27,05,04,097,28,12,35,099,35,14,17,258,32*76
$GPGSV,3,2,11,25,74,085,30,26,07,291,25,29,78,241,43,31,45,296,38*7D
$GPGSV,3,3,11,06,04,030,,21,08,191,,32,09,243,*47
$GLGSV,2,1,08,77,37,137,23,88,77,196,26,87,49,037,34,81,27,212,31*6A
$GLGSV,2,2,08,78,85,336,,70,07,343,,79,30,319,,71,03,029,*65
$GAGSV,1,1,0,*74
$PQGSV,1,1,0,*73
$PQGSV,1,1,0,*73
$GNGSA,A,3,02,05,12,14,25,29,31,32,,,,,1.1,0.9,0.7,1*31
$GNGSA,A,3,77,81,87,88,,,,,,,,,1.1,0.9,0.7,2*3A
$GNVTG,259.1,T,259.1,M,64.9,N,120.3,K,A*06
$GNRMC,130740.00,A,4820.249197,N,01423.506503,E,64.9,259.1,280419,1.2,E,A*14
$GNGGA,130740.00,4820.249197,N,01423.506503,E,1,12,0.9,378.7,M,44.9,M,,*74
$GPGSV,3,1,10,02,33,054,24,05,04,097,33,12,35,099,33,14,17,258,32*78
$GPGSV,3,2,10,25,74,085,33,29,78,241,43,31,45,296,39,32,09,243,23*7C
$GPGSV,3,3,10,06,04,030,,21,08,191,*7B
$GLGSV,2,1,08,77,37,137,27,79,30,319,22,88,77,196,29,87,49,037,34*68
$GLGSV,2,2,08,81,27,212,32,78,85,336,,70,07,343,,71,03,029,*6F
$GAGSV,1,1,0,*74
$PQGSV,1,1,0,*73
$PQGSV,1,1,0,*73
$GNGSA,A,3,02,05,12,14,25,29,31,32,,,,,1.0,0.8,0.7,1*31
$GNGSA,A,3,77,81,87,88,,,,,,,,,1.0,0.8,0.7,2*3A
$GNVTG,258.7,T,258.7,M,64.8,N,120.0,K,A*04
$GNRMC,130741.00,A,4820.245598,N,01423.480588,E,64.8,258.7,280419,1.2,E,A*18
$GNGGA,130741.00,4820.245598,N,01423.480588,E,1,12,0.8,378.7,M,44.9,M,,*7F
$GPGSV,3,1,10,02,33,054,28,05,04,097,33,12,35,099,35,14,17,258,32*72
$GPGSV,3,2,10,25,74,085,31,26,07,291,26,29,78,241,42,31,45,296,38*7F
$GPGSV,3,3,10,06,04,030,,21,08,191,*7B
$GLGSV,2,1,07,77,37,137,29,88,77,196,26,87,49,037,35,81,27,212,26*68
$GLGSV,2,2,07,78,85,336,,70,07,343,,71,03,029,*5C
$GAGSV,1,1,0,*74
$PQGSV,1,1,0,*73
$PQGSV,1,1,0,*73
$GNGSA,A,3,02,05,12,14,25,26,29,31,,,,,1.0,0.8,0.7,1*34
$GNGSA,A,3,77,81,87,88,,,,,,,,,1.0,0.8,0.7,2*3A
$GNVTG,258.1,T,258.1,M,64.8,N,120.0,K,A*04
$GNRMC,130742.00,A,4820.242523,N,01423.454081,E,64.8,258.1,280419,1.2,E,A*1F
$GNGGA,130742.00,4820.242523,N,01423.454081,E,1,12,0.8,379.7,M,44.9,M,,*7F
$GPGSV,3,1,10,02,33,054,26,05,04,097,27,12,35,099,34,14,17,258,33*79
$GPGSV,3,2,10,25,74,085,33,29,78,241,43,31,45,296,39,32,09,243,24*7B
$GPGSV,3,3,10,06,04,030,,21,08,191,*7B
$GLGSV,2,1,08,77,37,137,26,88,77,196,26,87,49,037,33,81,27,212,33*6A
$GLGSV,2,2,08,78,85,336,,70,07,343,,79,30,319,,71,03,029,*65
$GAGSV,1,1,0,*74
$PQGSV,1,1,0,*73
$PQGSV,1,1,0,*73
$GNGSA,A,3,02,05,12,14,25,29,31,32,,,,,1.0,0.8,0.7,1*31
$GNGSA,A,3,77,79,81,87,88,,,,,,,,1.0,0.8,0.7,2*34
$GNVTG,257.8,T,257.8,M,65.0,N,120.4,K,A*09
$GNRMC,130743.00,A,4820.239503,N,01423.428381,E,65.0,257.8,280419,1.2,E,A*17
$GNGGA,130743.00,4820.239503,N,01423.428381,E,1,12,0.8,379.9,M,44.9,M,,*76
$GPGSV,3,1,09,02,33,054,28,12,35,099,34,14,17,258,33,25,74,085,33*7C
$GPGSV,3,2,09,29,78,241,43,31,45,296,40,06,04,030,,21,08,191,*7C
$GPGSV,3,3,09,26,07,291,*49
$GLGSV,2,1,08,77,37,137,28,88,77,196,27,87,49,037,34,81,27,212,32*63
$GLGSV,2,2,08,78,85,336,,70,07,343,,79,30,319,,71,03,029,*65
$GAGSV,1,1,0,*74
$PQGSV,1,1,0,*73
$PQGSV,1,1,0,*73
$GNGSA,A,3,02,12,14,25,26,29,31,,,,,,1.0,0.8,0.7,1*31
$GNGSA,A,3,77,79,81,87,88,,,,,,,,1.0,0.8,0.7,2*34
$GNVTG,257.5,T,257.5,M,65.5,N,121.2,K,A*0B
$GNRMC,130744.00,A,4820.235464,N,01423.401280,E,65.5,257.5,280419,1.2,E,A*1F
$GNGGA,130744.00,4820.235464,N,01423.401280,E,1,12,0.8,379.2,M,44.9,M,,*7D
$GPGSV,3,1,11,02,33,054,27,12,35,099,34,14,17,258,33,25,74,085,34*7D
$GPGSV,3,2,11,29,78,241,43,31,45,296,39,05,04,097,,06,04,030,*76
$GPGSV,3,3,11,21,08,191,,26,07,291,,32,09,243,*4F
$GLGSV,2,1,08,77,37,137,28,88,77,196,27,87,49,037,33,81,27,212,32*64
$GLGSV,2,2,08,78,85,336,,70,07,343,,79,30,319,,71,03,029,*65
$GAGSV,1,1,0,*74
$PQGSV,1,1,0,*73
$PQGSV,1,1,0,*73
$GNGSA,A,3,02,05,12,14,25,26,29,31,32,,,,1.0,0.8,0.7,1*35
$GNGSA,A,3,77,79,81,87,88,,,,,,,,1.0,0.8,0.7,2*34
$GNVTG,257.5,T,257.5,M,65.8,N,121.8,K,A*0C
$GNRMC,130745.00,A,4820.231470,N,01423.374534,E,65.8,257.5,280419,1.2,E,A*1F
$GNGGA,130745.00,4820.231470,N,01423.374534,E,1,12,0.8,379.7,M,44.9,M,,*75
$GPGSV,3,1,11,02,33,054,26,12,35,099,35,14,17,258,33,25,74,085,32*7B
$GPGSV,3,2,11,29,78,241,43,31,45,296,37,32,09,243,22,05,04,097,*74
$GPGSV,3,3,11,06,04,030,,21,08,191,,26,07,291,*43
$GLGSV,2,1,08,77,37,137,28,88,77,196,26,87,49,037,30,81,27,212,32*66
$GLGSV,2,2,08,78,85,336,,70,07,343,,79,30,319,,71,03,029,*65
$GAGSV,1,1,0,*74
$PQGSV,1,1,0,*73
$PQGSV,1,1,0,*73
$GNGSA,A,3,02,05,12,14,25,26,29,31,32,,,,1.0,0.8,0.7,1*35
$GNGSA,A,3,77,79,81,87,88,,,,,,,,1.0,0.8,0.7,2*34
$GNVTG,257.5,T,257.5,M,66.1,N,122.5,K,A*08
$GNRMC,130746.00,A,4820.227614,N,01423.348041,E,66.1,257.5,280419,1.2,E,A*19
$GNGGA,130746.00,4820.227614,N,01423.348041,E,1,12,0.8,379.8,M,44.9,M,,*76
$GPGSV,3,1,10,02,33,054,26,12,35,099,33,14,17,258,28,25,74,085,36*72
$GPGSV,3,2,10,29,78,241,43,31,45,296,37,05,04,097,,06,04,030,*79
$GPGSV,3,3,10,21,08,191,,26,07,291,*73
$GLGSV,2,1,08,77,37,137,27,88,77,196,27,87,49,037,34,81,27,212,31*6F
$GLGSV,2,2,08,78,85,336,,70,07,343,,79,30,319,,71,03,029,*65
$GAGSV,1,1,0,*74
$PQGSV,1,1,0,*73
$PQGSV,1,1,0,*73
$GNGSA,A,3,02,05,12,14,25,26,29,31,,,,,1.1,0.9,0.7,1*34
$GNGSA,A,3,77,79,81,87,88,,,,,,,,1.1,0.9,0.7,2*34
$GNVTG,257.4,T,257.4,M,66.4,N,123.0,K,A*09
$GNRMC,130747.00,A,4820.223440,N,01423.321053,E,66.4,257.4,280419,1.2,E,A*17
$GNGGA,130747.00,4820.223440,N,01423.321053,E,1,12,0.9,379.4,M,44.9,M,,*71
$GPGSV,3,1,11,02,33,054,26,12,35,099,35,14,17,258,33,25,74,085,36*7F
$GPGSV,3,2,11,29,78,241,42,31,45,296,38,32,09,243,26,05,04,097,*7E
$GPGSV,3,3,11,06,04,030,,21,08,191,,26,07,291,*43
$GLGSV,2,1,08,77,37,137,27,88,77,196,27,87,49,037,32,81,27,212,30*68
$GLGSV,2,2,08,78,85,336,,70,07,343,,79,30,319,,71,03,029,*65
$GAGSV,1,1,0,*74
$PQGSV,1,1,0,*73
$PQGSV,1,1,0,*73
$GNGSA,A,3,02,05,12,14,25,26,29,31,32,,,,1.2,1.0,0.7,1*3E
$GNGSA,A,3,77,81,87,88,,,,,,,,,1.2,1.0,0.7,2*31
$GNVTG,257.5,T,257.5,M,66.5,N,123.1,K,A*09
$GNRMC,130748.00,A,4820.219827,N,01423.294168,E,66.5,257.5,280419,1.2,E,A*1A
$GNGGA,130748.00,4820.219827,N,01423.294168,E,1,12,1.0,379.4,M,44.9,M,,*74
$GPGSV,3,1,11,02,33,054,24,12,35,099,34,14,17,258,32,25,74,085,38*73
$GPGSV,3,2,11,29,78,241,43,31,45,296,37,32,09,243,26,05,04,097,*70
$GPGSV,3,3,11,06,04,030,,21,08,191,,26,07,291,*43
$GLGSV,2,1,08,77,37,137,28,88,77,196,28,87,49,037,31,81,27,212,32*69
$GLGSV,2,2,08,78,85,336,,70,07,343,,79,30,319,,71,03,029,*65
$GAGSV,1,1,0,*74
$PQGSV,1,1,0,*73
$PQGSV,1,1,0,*73
$GNGSA,A,3,02,05,12,14,25,29,31,32,,,,,1.3,1.0,0.8,1*34
$GNGSA,A,3,77,81,87,88,,,,,,,,,1.3,1.0,0.8,2*3F
$GNVTG,257.3,T,257.3,M,66.0,N,122.2,K,A*0E
$GNRMC,130749.00,A,4820.215989,N,01423.267594,E,66.0,257.3,280419,1.2,E,A*1A
$GNGGA,130749.00,4820.215989,N,01423.267594,E,1,12,1.0,379.2,M,44.9,M,,*71
$GPGSV,3,1,10,02,33,054,27,12,35,099,32,14,17,258,34,25,74,085,38*71
$GPGSV,3,2,10,29,78,241,43,31,45,296,38,05,04,097,,06,04,030,*76
$GPGSV,3,3,10,21,08,191,,26,07,291,*73
$GLGSV,2,1,08,77,37,137,31,88,77,196,28,87,49,037,30,81,27,212,29*6A
$GLGSV,2,2,08,78,85,336,,70,07,343,,79,30,319,,71,03,029,*65
$GAGSV,1,1,0,*74
$PQGSV,1,1,0,*73
$PQGSV,1,1,0,*73
$GNGSA,A,3,02,12,14,25,29,31,,,,,,,1.3,1.0,0.8,1*30
$GNGSA,A,3,77,81,87,88,,,,,,,,,1.3,1.0,0.8,2*3F
$GNVTG,256.5,T,256.5,M,65.8,N,121.8,K,A*0C
$GNRMC,130750.00,A,4820.211987,N,01423.241562,E,65.8,256.5,280419,1.2,E,A*19
$GNGGA,130750.00,4820.211987,N,01423.241562,E,1,10,1.0,378.4,M,44.9,M,,*7B
$GPGSV,3,1,11,02,33,054,27,12,35,099,32,14,17,258,33,25,74,085,37*78
$GPGSV,3,2,11,29,78,241,43,31,45,296,37,32,09,243,28,05,04,097,*7E
$GPGSV,3,3,11,06,04,030,,21,08,191,,26,07,291,*43
$GLGSV,2,1,08,77,37,137,29,88,77,196,27,87,49,037,32,81,27,212,28*6F
$GLGSV,2,2,08,78,85,336,,70,07,343,,79,30,319,,71,03,029,*65
$GAGSV,1,1,0,*74
$PQGSV,1,1,0,*73
$PQGSV,1,1,0,*73
$GNGSA,A,3,02,12,14,25,29,31,32,,,,,,1.3,1.0,0.8,1*31
$GNGSA,A,3,77,81,87,88,,,,,,,,,1.3,1.0,0.8,2*3F
$GNVTG,255.8,T,255.8,M,66.0,N,122.2,K,A*0E
$GNRMC,130751.00,A,4820.207596,N,01423.214513,E,66.0,255.8,280419,1.2,E,A*10
$GNGGA,130751.00,4820.207596,N,01423.214513,E,1,11,1.0,378.3,M,44.9,M,,*71
$GPGSV,3,1,11,02,33,054,29,12,35,099,29,14,17,258,33,25,74,085,38*73
$GPGSV,3,2,11,29,78,241,42,31,45,296,37,32,09,243,28,05,04,097,*7F
$GPGSV,3,3,11,06,04,030,,21,08,191,,26,07,291,*43
$GLGSV,2,1,08,77,37,137,28,79,30,319,25,88,77,196,28,87,49,037,31*64
$GLGSV,2,2,08,81,27,212,27,78,85,336,,70,07,343,,71,03,029,*6B
$GAGSV,1,1,0,*74
$PQGSV,1,1,0,*73
$PQGSV,1,1,0,*73
$GNGSA,A,3,02,12,14,25,29,31,32,,,,,,1.2,0.9,0.8,1*38
$GNGSA,A,3,77,81,87,88,,,,,,,,,1.2,0.9,0.8,2*36
$GNVTG,255.4,T,255.4,M,66.1,N,122.4,K,A*09
$GNRMC,130752.00,A,4820.203039,N,01423.187992,E,66.1,255.4,280419,1.2,E,A*16
$GNGGA,130752.00,4820.203039,N,01423.187992,E,1,11,0.9,378.4,M,44.9,M,,*75
$GPGSV,3,1,11,02,33,054,31,12,35,099,30,14,17,258,34,25,74,085,39*74
$GPGSV,3,2,11,29,78,241,42,31,45,296,37,32,09,243,29,05,04,097,*7E
$GPGSV,3,3,11,06,04,030,,21,08,191,,26,07,291,*43
$GLGSV,2,1,08,77,37,137,27,79,30,319,22,88,77,196,27,87,49,037,30*62
$GLGSV,2,2,08,81,27,212,27,78,85,336,,70,07,343,,71,03,029,*6B
$GAGSV,1,1,0,*74
$PQGSV,1,1,0,*73
$PQGSV,1,1,0,*73
$GNGSA,A,3,02,12,14,25,29,31,32,,,,,,1.2,0.9,0.8,1*38
$GNGSA,A,3,77,79,81,87,88,,,,,,,,1.2,0.9,0.8,2*38
$GNVTG,254.8,T,254.8,M,66.6,N,123.3,K,A*08
$GNRMC,130753.00,A,4820.198269,N,01423.161273,E,66.6,254.8,280419,1.2,E,A*17
$GNGGA,130753.00,4820.198269,N,01423.161273,E,1,12,0.9,378.4,M,44.9,M,,*7D
$GPGSV,3,1,11,02,33,054,31,12,35,099,31,14,17,258,34,25,74,085,38*74
$GPGSV,3,2,11,29,78,241,42,31,45,296,38,32,09,243,24,05,04,097,*7C
$GPGSV,3,3,11,06,04,030,,21,08,191,,26,07,291,*43
$GLGSV,2,1,08,77,37,137,26,79,30,319,23,88,77,196,28,87,49,037,33*6E
$GLGSV,2,2,08,81,27,212,29,78,85,336,,70,07,343,,71,03,029,*65
$GAGSV,1,1,0,*74
$PQGSV,1,1,0,*73
$PQGSV,1,1,0,*73
$GNGSA,A,3,02,12,14,25,29,31,32,,,,,,1.2,0.9,0.8,1*38
$GNGSA,A,3,77,79,81,87,88,,,,,,,,1.2,0.9,0.8,2*38
$GNVTG,254.3,T,254.3,M,66.5,N,123.2,K,A*0A
$GNRMC,130754.00,A,4820.193343,N,01423.134624,E,66.5,254.3,280419,1.2,E,A*1C
$GNGGA,130754.00,4820.193343,N,01423.134624,E,1,12,0.9,377.7,M,44.9,M,,*72
$GPGSV,3,1,11,02,33,054,33,12,35,099,32,14,17,258,33,25,74,085,38*72
$GPGSV,3,2,11,29,78,241,42,31,45,296,37,32,09,243,29,05,04,097,*7E
$GPGSV,3,3,11,06,04,030,,21,08,191,,26,07,291,*43
$GLGSV,2,1,08,77,37,137,25,79,30,319,25,88,77,196,28,87,49,037,33*6B
$GLGSV,2,2,08,81,27,212,30,78,85,336,,70,07,343,,71,03,029,*6D
$GAGSV,1,1,0,*74
$PQGSV,1,1,0,*73
$PQGSV,1,1,0,*73
$GNGSA,A,3,02,12,14,25,29,31,32,,,,,,1.2,0.9,0.8,1*38
$GNGSA,A,3,77,79,81,87,88,,,,,,,,1.2,0.9,0.8,2*38
$GNVTG,254.1,T,254.1,M,66.8,N,123.8,K,A*0D
$GNRMC,130755.00,A,4820.188768,N,01423.107700,E,66.8,254.1,280419,1.2,E,A*12
$GNGGA,130755.00,4820.188768,N,01423.107700,E,1,12,0.9,377.1,M,44.9,M,,*75
$GPGSV,3,1,11,02,33,054,31,12,35,099,33,14,17,258,33,25,74,085,40*7E
$GPGSV,3,2,11,29,78,241,41,31,45,296,37,32,09,243,28,05,04,097,*7C
$GPGSV,3,3,11,06,04,030,,21,08,191,,26,07,291,*43
$GLGSV,2,1,08,77,37,137,23,79,30,319,26,88,77,196,29,87,49,037,34*68
$GLGSV,2,2,08,81,27,212,31,78,85,336,,70,07,343,,71,03,029,*6C
$GAGSV,1,1,0,*74
$PQGSV,1,1,0,*73
$PQGSV,1,1,0,*73
$GNGSA,A,3,02,12,14,25,29,31,32,,,,,,1.2,0.9,0.8,1*38
$GNGSA,A,3,77,79,81,87,88,,,,,,,,1.2,0.9,0.8,2*38
$GNVTG,253.5,T,253.5,M,66.9,N,123.9,K,A*0D
$GNRMC,130756.00,A,4820.183233,N,01423.080858,E,66.9,253.5,280419,1.2,E,A*1F
$GNGGA,130756.00,4820.183233,N,01423.080858,E,1,12,0.9,377.3,M,44.9,M,,*78
$GPGSV,3,1,10,02,33,054,32,12,35,099,33,14,17,258,26,25,74,085,39*76
$GPGSV,3,2,10,29,78,241,42,31,45,296,38,05,04,097,,06,04,030,*77
$GPGSV,3,3,10,21,08,191,,26,07,291,*73
$GLGSV,2,1,08,77,37,137,24,79,30,319,31,88,77,196,28,87,49,037,34*68
$GLGSV,2,2,08,81,27,212,27,78,85,336,,70,07,343,,71,03,029,*6B
$GAGSV,1,1,0,*74
$PQGSV,1,1,0,*73
$PQGSV,1,1,0,*73
$GNGSA,A,3,02,12,14,25,29,31,,,,,,,1.2,0.9,0.8,1*39
$GNGSA,A,3,77,79,81,87,88,,,,,,,,1.2,0.9,0.8,2*38
$GNVTG,253.6,T,253.6,M,66.7,N,123.6,K,A*0C
$GNRMC,130757.00,A,4820.177778,N,01423.054216,E,66.7,253.6,280419,1.2,E,A*1B
$GNGGA,130757.00,4820.177778,N,01423.054216,E,1,11,0.9,377.8,M,44.9,M,,*79
$GPGSV,3,1,11,02,33,054,32,12,35,099,33,14,17,258,33,25,74,085,39*73
$GPGSV,3,2,11,29,78,241,41,31,45,296,37,32,09,243,29,05,04,097,*7D
$GPGSV,3,3,11,06,04,030,,21,08,191,,26,07,291,*43
$GLGSV,2,1,06,88,77,196,27,87,49,037,33,81,27,212,30,78,85,336,*67
$GLGSV,2,2,06,70,07,343,,71,03,029,*69
$GAGSV,1,1,0,*74
$PQGSV,1,1,0,*73
$PQGSV,1,1,0,*73
$GNGSA,A,3,02,12,14,25,29,31,32,,,,,,1.2,0.9,0.8,1*38
$GNGSA,A,2,81,87,88,,,,,,,,,,1.2,0.9,0.8,2*37
$GNVTG,253.4,T,253.4,M,66.8,N,123.8,K,A*0D
$GNRMC,130758.00,A,4820.172768,N,01423.027401,E,66.8,253.4,280419,1.2,E,A*19
$GNGGA,130758.00,4820.172768,N,01423.027401,E,1,10,0.9,378.0,M,44.9,M,,*70
$GPGSV,3,1,11,02,33,054,31,12,35,099,34,14,17,258,33,25,74,085,40*79
$GPGSV,3,2,11,29,78,241,41,31,45,296,38,32,09,243,25,05,04,097,*7E
$GPGSV,3,3,11,06,04,030,,21,08,191,,26,07,291,*43
$GLGSV,2,1,08,77,37,137,22,79,30,319,25,88,77,196,30,87,49,037,33*65
$GLGSV,2,2,08,81,27,212,28,78,85,336,,70,07,343,,71,03,029,*64
$GAGSV,1,1,0,*74
$PQGSV,1,1,0,*73
$PQGSV,1,1,0,*73
$GNGSA,A,3,02,12,14,25,29,31,32,,,,,,1.2,0.9,0.8,1*38
$GNGSA,A,3,77,79,81,87,88,,,,,,,,1.2,0.9,0.8,2*38
$GNVTG,253.3,T,253.3,M,66.5,N,123.1,K,A*09
$GNRMC,130759.00,A,4820.167262,N,01423.000824,E,66.5,253.3,280419,1.2,E,A*17
$GNGGA,130759.00,4820.167262,N,01423.000824,E,1,12,0.9,378.5,M,44.9,M,,*73
$GPGSV,3,1,11,02,33,054,33,12,35,099,34,14,17,258,33,25,74,085,40*7B
$GPGSV,3,2,11,29,78,241,40,31,45,296,37,32,09,243,29,05,04,097,*7C
$GPGSV,3,3,11,06,04,030,,21,08,191,,26,07,291,*43
$GLGSV,2,1,07,77,37,137,26,88,77,196,30,87,49,037,33,81,27,212,30*61
$GLGSV,2,2,07,78,85,336,,70,07,343,,71,03,029,*5C
$GAGSV,1,1,0,*74
$PQGSV,1,1,0,*73
$PQGSV,1,1,0,*73
$GNGSA,A,3,02,12,14,25,29,31,32,,,,,,1.2,0.9,0.8,1*38
$GNGSA,A,3,77,81,87,88,,,,,,,,,1.2,0.9,0.8,2*36
$GNVTG,253.0,T,253.0,M,66.2,N,122.6,K,A*08
$GNRMC,130800.00,A,4820.161723,N,01422.973995,E,66.2,253.0,280419,1.2,E,A*11
$GNGGA,130800.00,4820.161723,N,01422.973995,E,1,11,0.9,378.2,M,44.9,M,,*75
$GPGSV,3,1,10,02,33,054,30,12,35,099,39,14,17,258,33,25,74,085,39*7A
$GPGSV,3,2,10,29,78,241,41,31,45,296,40,32,09,243,26,05,04,097,*73
$GPGSV,3,3,10,06,04,030,,21,08,191,*7B
$GLGSV,2,1,07,79,30,319,29,88,77,196,31,87,49,037,32,81,27,212,28*60
$GLGSV,2,2,07,78,85,336,,70,07,343,,71,03,029,*5C
$GAGSV,1,1,0,*74
$PQGSV,1,1,0,*73
$PQGSV,1,1,0,*73
$GNGSA,A,3,02,12,14,25,29,31,32,,,,,,1.2,0.9,0.8,1*38
$GNGSA,A,3,79,81,87,88,,,,,,,,,1.2,0.9,0.8,2*38
$GNVTG,253.1,T,253.1,M,66.1,N,122.4,K,A*09
$GNRMC,130801.00,A,4820.156582,N,01422.947296,E,66.1,253.1,280419,1.2,E,A*10
$GNGGA,130801.00,4820.156582,N,01422.947296,E,1,11,0.9,378.1,M,44.9,M,,*75
$GPGSV,3,1,10,02,33,054,30,12,35,099,39,14,17,258,33,25,74,085,38*7B
$GPGSV,3,2,10,29,78,241,39,31,45,296,40,32,09,243,30,05,04,097,*7B
$GPGSV,3,3,10,06,04,030,,21,08,191,*7B
$GLGSV,2,1,08,79,30,319,30,88,77,196,30,87,49,037,32,81,27,212,28*66
$GLGSV,2,2,08,78,85,336,,70,07,343,,77,37,137,,71,03,029,*62
$GAGSV,1,1,0,*74
$PQGSV,1,1,0,*73
$PQGSV,1,1,0,*73
$GNGSA,A,3,02,12,14,25,29,31,32,,,,,,1.2,0.9,0.8,1*38
$GNGSA,A,3,77,79,81,87,88,,,,,,,,1.2,0.9,0.8,2*38
$GNVTG,253.1,T,253.1,M,65.9,N,122.0,K,A*06
$GNRMC,130802.00,A,4820.151588,N,01422.921016,E,65.9,253.1,280419,1.2,E,A*1F
$GNGGA,130802.00,4820.151588,N,01422.921016,E,1,12,0.9,378.3,M,44.9,M,,*70
$GPGSV,3,1,11,02,33,054,30,12,35,099,39,14,17,258,33,25,74,085,39*7B
$GPGSV,3,2,11,29,78,241,41,31,45,296,40,32,09,243,27,05,04,097,*73
$GPGSV,3,3,11,06,04,030,,21,08,191,,26,07,291,*43
$GLGSV,2,1,08,77,37,137,23,79,30,319,25,88,77,196,30,87,49,037,32*65
$GLGSV,2,2,08,81,27,212,28,78,85,336,,70,07,343,,71,03,029,*64
$GAGSV,1,1,0,*74
$PQGSV,1,1,0,*73
$PQGSV,1,1,0,*73
$GNGSA,A,3,02,12,14,25,29,31,32,,,,,,1.2,0.9,0.8,1*38
$GNGSA,A,3,77,79,81,87,88,,,,,,,,1.2,0.9,0.8,2*38
$GNVTG,252.8,T,252.8,M,65.5,N,121.2,K,A*0B
$GNRMC,130803.00,A,4820.145743,N,01422.894486,E,65.5,252.8,280419,1.2,E,A*18
$GNGGA,130803.00,4820.145743,N,01422.894486,E,1,12,0.9,378.1,M,44.9,M,,*71
$GPGSV,3,1,11,02,33,054,30,05,04,097,26,12,35,099,37,14,17,258,33*7D
$GPGSV,3,2,11,25,74,085,38,29,78,241,40,31,45,296,40,32,09,243,31*78
$GPGSV,3,3,11,06,04,030,,21,08,191,,26,07,291,*43
$GLGSV,2,1,08,77,37,137,24,79,30,319,25,88,77,196,31,87,49,037,34*65
$GLGSV,2,2,08,81,27,212,27,78,85,336,,70,07,343,,71,03,029,*6B
$GAGSV,1,1,0,*74
$PQGSV,1,1,0,*73
$PQGSV,1,1,0,*73
$GNGSA,A,3,02,12,14,25,29,31,32,,,,,,1.1,0.8,0.7,1*35
$GNGSA,A,3,77,79,81,87,88,,,,,,,,1.1,0.8,0.7,2*35
$GNVTG,253.1,T,253.1,M,65.3,N,120.9,K,A*07
$GNRMC,130804.00,A,4820.140484,N,01422.868116,E,65.3,253.1,280419,1.2,E,A*13
$GNGGA,130804.00,4820.140484,N,01422.868116,E,1,12,0.8,378.0,M,44.9,M,,*74
$GPGSV,3,1,10,02,33,054,31,12,35,099,37,14,17,258,34,25,74,085,39*72
$GPGSV,3,2,10,29,78,241,41,31,45,296,40,32,09,243,30,06,04,030,*7A
$GPGSV,3,3,10,21,08,191,,26,07,291,*73
$GLGSV,2,1,08,77,37,137,26,79,30,319,24,88,77,196,31,87,49,037,34*66
$GLGSV,2,2,08,81,27,212,28,78,85,336,,70,07,343,,71,03,029,*64
$GAGSV,1,1,0,*74
$PQGSV,1,1,0,*73
$PQGSV,1,1,0,*73
$GNGSA,A,3,02,12,14,25,29,31,32,,,,,,1.1,0.8,0.7,1*35
$GNGSA,A,3,77,79,81,87,88,,,,,,,,1.1,0.8,0.7,2*35
$GNVTG,253.5,T,253.5,M,65.4,N,121.1,K,A*09
$GNRMC,130805.00,A,4820.134763,N,01422.841840,E,65.4,253.5,280419,1.2,E,A*19
$GNGGA,130805.00,4820.134763,N,01422.841840,E,1,12,0.8,379.0,M,44.9,M,,*7C
$GPGSV,3,1,11,02,33,054,31,12,35,099,37,14,17,258,33,25,74,085,38*75
$GPGSV,3,2,11,29,78,241,39,31,45,296,40,32,09,243,30,05,04,097,*7A
$GPGSV,3,3,11,06,04,030,,21,08,191,,26,07,291,*43
$GLGSV,2,1,08,77,37,137,25,79,30,319,24,88,77,196,31,87,49,037,34*65
$GLGSV,2,2,08,81,27,212,26,78,85,336,,70,07,343,,71,03,029,*6A
$GAGSV,1,1,0,*74
$PQGSV,1,1,0,*73
$PQGSV,1,1,0,*73
$GNGSA,A,3,02,05,12,14,25,29,31,32,,,,,1.1,0.8,0.7,1*30
$GNGSA,A,3,77,79,81,87,88,,,,,,,,1.1,0.8,0.7,2*35
$GNVTG,254.1,T,254.1,M,65.6,N,121.5,K,A*0F
$GNRMC,130806.00,A,4820.129825,N,01422.815685,E,65.6,254.1,280419,1.2,E,A*1C
$GNGGA,130806.00,4820.129825,N,01422.815685,E,1,12,0.8,379.0,M,44.9,M,,*78
$GPGSV,3,1,11,02,33,054,31,12,35,099,36,14,17,258,32,25,74,085,39*74
$GPGSV,3,2,11,29,78,241,41,31,45,296,40,32,09,243,31,05,04,097,*74
$GPGSV,3,3,11,06,04,030,,21,08,191,,26,07,291,*43
$GLGSV,2,1,08,77,37,137,27,79,30,319,28,88,77,196,30,87,49,037,35*6B
$GLGSV,2,2,08,81,27,212,29,78,85,336,,70,07,343,,71,03,029,*65
$GAGSV,1,1,0,*74
$PQGSV,1,1,0,*73
$PQGSV,1,1,0,*73
$GNGSA,A,3,02,05,12,14,25,29,31,32,,,,,1.1,0.8,0.7,1*30
$GNGSA,A,3,77,79,81,87,88,,,,,,,,1.1,0.8,0.7,2*35
$GNVTG,254.3,T,254.3,M,65.9,N,122.0,K,A*06
$GNRMC,130807.00,A,4820.124885,N,01422.789183,E,65.9,254.3,280419,1.2,E,A*1C
$GNGGA,130807.00,4820.124885,N,01422.789183,E,1,12,0.8,379.1,M,44.9,M,,*74
$GPGSV,3,1,10,02,33,054,32,05,04,097,29,12,35,099,34,14,17,258,34*75
$GPGSV,3,2,10,25,74,085,39,29,78,241,39,31,45,296,40,32,09,243,32*75
$GPGSV,3,3,10,06,04,030,,26,07,291,*70
$GLGSV,2,1,08,77,37,137,31,79,30,319,27,88,77,196,32,87,49,037,35*61
$GLGSV,2,2,08,81,27,212,29,78,85,336,,70,07,343,,71,03,029,*65
$GAGSV,1,1,0,*74
$PQGSV,1,1,0,*73
$PQGSV,1,1,0,*73
$GNGSA,A,3,02,05,12,14,25,29,31,32,,,,,1.1,0.8,0.7,1*30
$GNGSA,A,3,77,79,81,87,88,,,,,,,,1.1,0.8,0.7,2*35
$GNVTG,254.9,T,254.9,M,65.6,N,121.5,K,A*0F
$GNRMC,130808.00,A,4820.120326,N,01422.762688,E,65.6,254.9,280419,1.2,E,A*19
$GNGGA,130808.00,4820.120326,N,01422.762688,E,1,12,0.8,378.5,M,44.9,M,,*71
$GPGSV,3,1,11,02,33,054,32,05,04,097,25,12,35,099,33,14,17,258,33*78
$GPGSV,3,2,11,25,74,085,40,26,07,291,24,29,78,241,40,31,45,296,37*77
$GPGSV,3,3,11,32,09,243,28,06,04,030,,21,08,191,*4D
$GLGSV,2,1,08,77,37,137,30,79,30,319,28,88,77,196,31,87,49,037,34*6D
$GLGSV,2,2,08,81,27,212,34,78,85,336,,70,07,343,,71,03,029,*69
$GAGSV,1,1,0,*74
$PQGSV,1,1,0,*73
$PQGSV,1,1,0,*73
$GNGSA,A,3,02,05,12,14,25,29,31,32,,,,,1.0,0.8,0.7,1*31
$GNGSA,A,3,77,79,81,87,88,,,,,,,,1.0,0.8,0.7,2*34
$GNVTG,255.7,T,255.7,M,65.3,N,120.9,K,A*07
$GNRMC,130809.00,A,4820.115503,N,01422.736085,E,65.3,255.7,280419,1.2,E,A*1F
$GNGGA,130809.00,4820.115503,N,01422.736085,E,1,12,0.8,378.2,M,44.9,M,,*7A
$GPGSV,3,1,10,02,33,054,32,05,04,097,29,12,35,099,31,14,17,258,33*77
$GPGSV,3,2,10,25,74,085,39,29,78,241,40,31,45,296,37,32,09,243,23*7B
$GPGSV,3,3,10,06,04,030,,21,08,191,*7B
$GLGSV,2,1,08,77,37,137,31,79,30,319,26,88,77,196,31,87,49,037,35*63
$GLGSV,2,2,08,81,27,212,33,78,85,336,,70,07,343,,71,03,029,*6E
$GAGSV,1,1,0,*74
$PQGSV,1,1,0,*73
$PQGSV,1,1,0,*73
$GNGSA,A,3,02,05,12,14,25,29,31,32,,,,,1.0,0.8,0.7,1*31
$GNGSA,A,3,77,79,81,87,88,,,,,,,,1.0,0.8,0.7,2*34
$GNVTG,256.3,T,256.3,M,64.7,N,119.8,K,A*09
$GNRMC,130810.00,A,4820.111462,N,01422.709857,E,64.7,256.3,280419,1.2,E,A*1C
$GNGGA,130810.00,4820.111462,N,01422.709857,E,1,12,0.8,378.1,M,44.9,M,,*78
$GPGSV,3,1,11,02,33,054,30,05,04,097,33,12,35,099,29,14,17,258,33*76
$GPGSV,3,2,11,25,74,085,39,29,78,241,40,31,45,296,36,32,09,243,27*7F
$GPGSV,3,3,11,06,04,030,,21,08,191,,26,07,291,*43
$GLGSV,2,1,08,77,37,137,32,79,30,319,27,88,77,196,32,87,49,037,33*64
$GLGSV,2,2,08,81,27,212,33,78,85,336,,70,07,343,,71,03,029,*6E
$GAGSV,1,1,0,*74
$PQGSV,1,1,0,*73
$PQGSV,1,1,0,*73
$GNGSA,A,3,02,05,12,14,25,26,29,31,32,,,,1.0,0.8,0.7,1*35
$GNGSA,A,3,77,79,81,87,88,,,,,,,,1.0,0.8,0.7,2*34
$GNVTG,256.8,T,256.8,M,64.8,N,120.0,K,A*04
$GNRMC,130811.00,A,4820.107120,N,01422.683783,E,64.8,256.8,280419,1.2,E,A*18
$GNGGA,130811.00,4820.107120,N,01422.683783,E,1,12,0.8,377.6,M,44.9,M,,*70
$GPGSV,3,1,10,02,33,054,29,12,35,099,32,14,17,258,32,21,08,191,28*73
$GPGSV,3,2,10,25,74,085,39,26,07,291,24,29,78,241,40,31,45,296,37*78
$GPGSV,3,3,10,32,09,243,27,06,04,030,*71
$GLGSV,2,1,07,77,37,137,30,88,77,196,31,87,49,037,32,81,27,212,33*65
$GLGSV,2,2,07,78,85,336,,70,07,343,,71,03,029,*5C
$GAGSV,1,1,0,*74
$PQGSV,1,1,0,*73
$PQGSV,1,1,0,*73
$GNGSA,A,3,02,12,14,25,26,29,31,32,,,,,1.0,0.7,0.7,1*3F
$GNGSA,A,3,77,81,87,88,,,,,,,,,1.0,0.7,0.7,2*35
$GNVTG,257.4,T,257.4,M,64.8,N,120.0,K,A*04
$GNRMC,130812.00,A,4820.103883,N,01422.657624,E,64.8,257.4,280419,1.2,E,A*17
$GNGGA,130812.00,4820.103883,N,01422.657624,E,1,12,0.7,377.9,M,44.9,M,,*72
$GPGSV,3,1,09,02,33,054,28,05,04,097,30,12,35,099,33,21,08,191,28*7A
$GPGSV,3,2,09,25,74,085,40,29,78,241,40,31,45,296,34,32,09,243,28*75
$GPGSV,3,3,09,06,04,030,*41
$GLGSV,2,1,08,77,37,137,30,79,30,319,22,88,77,196,32,87,49,037,32*62
$GLGSV,2,2,08,81,27,212,33,78,85,336,,70,07,343,,71,03,029,*6E
$GAGSV,1,1,0,*74
$PQGSV,1,1,0,*73
$PQGSV,1,1,0,*73
$GNGSA,A,3,02,05,12,21,25,29,31,32,,,,,1.0,0.7,0.7,1*38
$GNGSA,A,3,77,79,81,87,88,,,,,,,,1.0,0.7,0.7,2*3B
$GNVTG,258.0,T,258.0,M,65.2,N,120.8,K,A*07
$GNRMC,130813.00,A,4820.099855,N,01422.631749,E,65.2,258.0,280419,1.2,E,A*15
$GNGGA,130813.00,4820.099855,N,01422.631749,E,1,12,0.7,377.0,M,44.9,M,,*79
$GPGSV,3,1,11,02,33,054,24,05,04,097,27,12,35,099,32,14,17,258,28*76
$GPGSV,3,2,11,21,08,191,28,25,74,085,39,29,78,241,38,31,45,296,33*75
$GPGSV,3,3,11,32,09,243,30,06,04,030,,26,07,291,*4F
$GLGSV,2,1,08,77,37,137,29,79,30,319,26,88,77,196,32,87,49,037,31*6D
$GLGSV,2,2,08,81,27,212,32,78,85,336,,70,07,343,,71,03,029,*6F
$GAGSV,1,1,0,*74
$PQGSV,1,1,0,*73
$PQGSV,1,1,0,*73
$GNGSA,A,3,02,05,12,14,21,25,26,29,31,32,,,1.0,0.7,0.7,1*39
$GNGSA,A,3,77,79,81,87,88,,,,,,,,1.0,0.7,0.7,2*3B
$GNVTG,258.7,T,258.7,M,65.4,N,121.2,K,A*0A
$GNRMC,130814.00,A,4820.096258,N,01422.605112,E,65.4,258.7,280419,1.2,E,A*14
$GNGGA,130814.00,4820.096258,N,01422.605112,E,1,12,0.7,376.6,M,44.9,M,,*7E
$GPGSV,3,1,11,02,33,054,28,05,04,097,31,12,35,099,34,14,17,258,29*7A
$GPGSV,3,2,11,21,08,191,27,25,74,085,39,29,78,241,39,31,45,296,35*7D
$GPGSV,3,3,11,32,09,243,25,06,04,030,,26,07,291,*4B
$GLGSV,2,1,08,77,37,137,30,79,30,319,26,88,77,196,32,87,49,037,33*67
$GLGSV,2,2,08,81,27,212,32,78,85,336,,70,07,343,,71,03,029,*6F
$GAGSV,1,1,0,*74
$PQGSV,1,1,0,*73
$PQGSV,1,1,0,*73
$GNGSA,A,3,02,05,12,14,21,25,26,29,31,32,,,1.0,0.7,0.7,1*39
$GNGSA,A,3,77,79,81,87,88,,,,,,,,1.0,0.7,0.7,2*3B
$GNVTG,259.1,T,259.1,M,65.8,N,121.9,K,A*0D
$GNRMC,130815.00,A,4820.092651,N,01422.578477,E,65.8,259.1,280419,1.2,E,A*18
$GNGGA,130815.00,4820.092651,N,01422.578477,E,1,12,0.7,376.4,M,44.9,M,,*7B
$GPGSV,3,1,10,02,33,054,28,05,04,097,30,12,35,099,35,14,17,258,29*7B
$GPGSV,3,2,10,25,74,085,39,29,78,241,38,31,45,296,32,32,09,243,32*71
$GPGSV,3,3,10,06,04,030,,26,07,291,*70
$GLGSV,2,1,08,77,37,137,31,79,30,319,28,88,77,196,32,87,49,037,31*6A
$GLGSV,2,2,08,81,27,212,32,78,85,336,,70,07,343,,71,03,029,*6F
$GAGSV,1,1,0,*74
$PQGSV,1,1,0,*73
$PQGSV,1,1,0,*73
$GNGSA,A,3,02,05,12,14,25,26,29,31,32,,,,1.0,0.7,0.7,1*3A
$GNGSA,A,3,77,79,81,87,88,,,,,,,,1.0,0.7,0.7,2*3B
$GNVTG,260.0,T,260.0,M,66.0,N,122.3,K,A*0F
$GNRMC,130816.00,A,4820.089372,N,01422.551617,E,66.0,260.0,280419,1.2,E,A*1A
$GNGGA,130816.00,4820.089372,N,01422.551617,E,1,12,0.7,375.8,M,44.9,M,,*76
$GPGSV,3,1,11,02,33,054,26,05,04,097,32,12,35,099,36,14,17,258,27*7B
$GPGSV,3,2,11,25,74,085,40,29,78,241,38,31,45,296,28,32,09,243,29*7F
$GPGSV,3,3,11,06,04,030,,21,08,191,,26,07,291,*43
$GLGSV,2,1,08,70,07,343,23,77,37,137,32,79,30,319,33,88,77,196,31*61
$GLGSV,2,2,08,87,49,037,34,81,27,212,26,78,85,336,,71,03,029,*6F
$GAGSV,1,1,0,*74
$PQGSV,1,1,0,*73
$PQGSV,1,1,0,*73
$GNGSA,A,3,02,05,12,14,21,25,26,29,31,32,,,0.9,0.6,0.7,1*30
$GNGSA,A,3,77,79,81,87,88,,,,,,,,0.9,0.6,0.7,2*32
$GNVTG,260.3,T,260.3,M,66.2,N,122.7,K,A*09
$GNRMC,130817.00,A,4820.086190,N,01422.524675,E,66.2,260.3,280419,1.2,E,A*1D
$GNGGA,130817.00,4820.086190,N,01422.524675,E,1,12,0.6,375.5,M,44.9,M,,*7C
$GPGSV,3,1,11,02,33,054,27,05,04,097,31,12,35,099,36,14,17,258,26*78
$GPGSV,3,2,11,25,74,085,39,29,78,241,37,31,45,296,28,32,09,243,28*7F
$GPGSV,3,3,11,06,04,030,,21,08,191,,26,07,291,*43
$GLGSV,2,1,08,70,07,343,24,77,37,137,32,79,30,319,32,88,77,196,31*67
$GLGSV,2,2,08,87,49,037,36,81,27,212,25,78,85,336,,71,03,029,*6E
$GAGSV,1,1,0,*74
$PQGSV,1,1,0,*73
$PQGSV,1,1,0,*73
$GNGSA,A,3,02,05,12,14,21,25,26,29,31,32,,,0.9,0.7,0.7,1*31
$GNGSA,A,3,70,77,79,81,87,88,,,,,,,0.9,0.7,0.7,2*34
$GNVTG,261.1,T,261.1,M,66.3,N,122.8,K,A*07
$GNRMC,130818.00,A,4820.082902,N,01422.497581,E,66.3,261.1,280419,1.2,E,A*16
$GNGGA,130818.00,4820.082902,N,01422.497581,E,1,12,0.7,375.5,M,44.9,M,,*74
$GPGSV,3,1,09,02,33,054,25,05,04,097,29,06,04,030,25,12,35,099,35*77
$GPGSV,3,2,09,25,74,085,39,29,78,241,37,32,09,243,31,21,08,191,*78
$GPGSV,3,3,09,26,07,291,*49
$GLGSV,2,1,07,77,37,137,31,79,30,319,29,88,77,196,31,87,49,037,35*63
$GLGSV,2,2,07,81,27,212,27,71,03,029,25,78,85,336,*57
$GAGSV,1,1,0,*74
$PQGSV,1,1,0,*73
$PQGSV,1,1,0,*73
$GNGSA,A,3,02,05,12,21,25,29,32,,,,,,0.9,0.7,0.7,1*32
$GNGSA,A,3,77,79,81,87,88,,,,,,,,0.9,0.7,0.7,2*33
$GNVTG,261.6,T,261.6,M,65.7,N,121.7,K,A*0C
$GNRMC,130819.00,A,4820.080717,N,01422.470605,E,65.7,261.6,280419,1.2,E,A*19
$GNGGA,130819.00,4820.080717,N,01422.470605,E,1,12,0.7,375.6,M,44.9,M,,*78
$GPGSV,2,1,08,12,35,099,34,25,74,085,40,29,78,241,37,32,09,243,24*71
$GPGSV,2,2,08,14,17,258,,21,08,191,,26,07,291,,31,45,296,*78
$GLGSV,2,1,07,77,37,137,31,79,30,319,35,88,77,196,30,87,49,037,34*6E
$GLGSV,2,2,07,81,27,212,31,78,85,336,,70,07,343,*5D
$GAGSV,1,1,0,*74
$PQGSV,1,1,0,*73
$PQGSV,1,1,0,*73
$GNGSA,A,3,12,14,21,25,29,31,32,,,,,,0.9,0.7,0.7,1*32
$GNGSA,A,3,70,77,79,81,87,88,,,,,,,0.9,0.7,0.7,2*34
$GNVTG,262.7,T,262.7,M,65.6,N,121.6,K,A*0C
$GNRMC,130820.00,A,4820.077961,N,01422.443470,E,65.6,262.7,280419,1.2,E,A*17
$GNGGA,130820.00,4820.077961,N,01422.443470,E,1,12,0.7,375.1,M,44.9,M,,*72
$GPGSV,3,1,10,02,33,054,26,05,04,097,25,12,35,099,34,25,74,085,40*7A
$GPGSV,3,2,10,29,78,241,37,06,04,030,,14,17,258,,21,08,191,*71
$GPGSV,3,3,10,26,07,291,,31,45,296,*7F
$GLGSV,2,1,08,77,37,137,29,79,30,319,32,88,77,196,31,87,49,037,35*6F
$GLGSV,2,2,08,81,27,212,34,78,85,336,,70,07,343,,71,03,029,*69
$GAGSV,1,1,0,*74
$PQGSV,1,1,0,*73
$PQGSV,1,1,0,*73
$GNGSA,A,3,02,05,12,14,21,25,29,31,,,,,1.0,0.7,0.7,1*3C
$GNGSA,A,3,70,77,79,81,87,88,,,,,,,1.0,0.7,0.7,2*3C
$GNVTG,263.4,T,263.4,M,65.6,N,121.5,K,A*0F
$GNRMC,130821.00,A,4820.075317,N,01422.416407,E,65.6,263.4,280419,1.2,E,A*1D
$GNGGA,130821.00,4820.075317,N,01422.416407,E,1,12,0.7,375.5,M,44.9,M,,*7E
$GPGSV,3,1,11,02,33,054,28,05,04,097,25,12,35,099,31,25,74,085,39*7E
$GPGSV,3,2,11,29,78,241,36,31,45,296,26,06,04,030,,14,17,258,*79
$GPGSV,3,3,11,21,08,191,,26,07,291,,32,09,243,*4F
$GLGSV,2,1,08,77,37,137,27,79,30,319,35,88,77,196,29,87,49,037,34*6E
$GLGSV,2,2,08,81,27,212,33,78,85,336,,70,07,343,,71,03,029,*6E
$GAGSV,1,1,0,*74
$PQGSV,1,1,0,*73
$PQGSV,1,1,0,*73
$GNGSA,A,3,02,05,12,14,25,29,31,32,,,,,1.0,0.7,0.7,1*3E
$GNGSA,A,3,70,77,79,81,87,88,,,,,,,1.0,0.7,0.7,2*3C
$GNVTG,264.0,T,264.0,M,65.7,N,121.6,K,A*0D
$GNRMC,130822.00,A,4820.073248,N,01422.389031,E,65.7,264.0,280419,1.2,E,A*11
$GNGGA,130822.00,4820.073248,N,01422.389031,E,1,12,0.7,375.1,M,44.9,M,,*74
$GPGSV,3,1,10,02,33,054,30,05,04,097,24,12,35,099,32,25,74,085,39*74
$GPGSV,3,2,10,29,78,241,35,06,04,030,,14,17,258,,21,08,191,*73
$GPGSV,3,3,10,26,07,291,,32,09,243,*7C
$GLGSV,2,1,08,77,37,137,24,79,30,319,35,88,77,196,29,87,49,037,34*6D
$GLGSV,2,2,08,81,27,212,33,78,85,336,,70,07,343,,71,03,029,*6E
$GAGSV,1,1,0,*74
$PQGSV,1,1,0,*73
$PQGSV,1,1,0,*73
$GNGSA,A,3,02,05,12,14,25,29,32,,,,,,1.0,0.7,0.7,1*3C
$GNGSA,A,3,70,77,79,81,87,88,,,,,,,1.0,0.7,0.7,2*3C
$GNVTG,264.7,T,264.7,M,65.7,N,121.6,K,A*0D
$GNRMC,130823.00,A,4820.071617,N,01422.361573,E,65.7,264.7,280419,1.2,E,A*1E
$GNGGA,130823.00,4820.071617,N,01422.361573,E,1,12,0.7,374.7,M,44.9,M,,*7B
$GPGSV,3,1,11,02,33,054,35,05,04,097,27,06,04,030,28,12,35,099,33*7A
$GPGSV,3,2,11,25,74,085,39,29,78,241,35,14,17,258,,21,08,191,*70
$GPGSV,3,3,11,26,07,291,,31,45,296,,32,09,243,*43
$GLGSV,2,1,08,77,37,137,24,79,30,319,29,88,77,196,29,87,49,037,30*64
$GLGSV,2,2,08,81,27,212,32,78,85,336,,70,07,343,,71,03,029,*6F
$GAGSV,1,1,0,*74
$PQGSV,1,1,0,*73
$PQGSV,1,1,0,*73
$GNGSA,A,3,02,05,12,14,25,29,31,32,,,,,1.1,0.8,0.7,1*30
$GNGSA,A,3,70,77,79,81,87,88,,,,,,,1.1,0.8,0.7,2*32
$GNVTG,265.6,T,265.6,M,65.9,N,122.0,K,A*06
$GNRMC,130824.00,A,4820.070232,N,01422.334155,E,65.9,265.6,280419,1.2,E,A*15
$GNGGA,130824.00,4820.070232,N,01422.334155,E,1,12,0.8,374.8,M,44.9,M,,*7E
$GPGSV,3,1,10,02,33,054,33,05,04,097,27,12,35,099,32,25,74,085,39*74
$GPGSV,3,2,10,29,78,241,34,14,17,258,,21,08,191,,26,07,291,*7A
$GPGSV,3,3,10,31,45,296,,32,09,243,*7B
$GLGSV,2,1,08,77,37,137,23,79,30,319,35,88,77,196,26,87,49,037,30*61
$GLGSV,2,2,08,81,27,212,31,78,85,336,,70,07,343,,71,03,029,*6C
$GAGSV,1,1,0,*74
$PQGSV,1,1,0,*73
$PQGSV,1,1,0,*73
$GNGSA,A,3,02,05,12,25,29,31,32,,,,,,1.1,0.8,0.7,1*35
$GNGSA,A,3,77,79,81,87,88,,,,,,,,1.1,0.8,0.7,2*35
$GNVTG,266.2,T,266.2,M,65.8,N,121.8,K,A*0C
$GNRMC,130825.00,A,4820.069008,N,01422.307068,E,65.8,266.2,280419,1.2,E,A*1E
$GNGGA,130825.00,4820.069008,N,01422.307068,E,1,12,0.8,374.9,M,44.9,M,,*72
$GPGSV,3,1,11,02,33,054,36,05,04,097,25,12,35,099,32,25,74,085,39*72
$GPGSV,3,2,11,29,78,241,34,06,04,030,,14,17,258,,21,08,191,*73
$GPGSV,3,3,11,26,07,291,,31,45,296,,32,09,243,*43
$GLGSV,2,1,08,77,37,137,25,79,30,319,35,88,77,196,28,87,49,037,27*6F
$GLGSV,2,2,08,81,27,212,25,78,85,336,,70,07,343,,71,03,029,*69
$GAGSV,1,1,0,*74
$PQGSV,1,1,0,*73
$PQGSV,1,1,0,*73
$GNGSA,A,3,02,05,12,25,29,31,32,,,,,,1.2,0.9,0.8,1*38
$GNGSA,A,3,77,79,81,87,88,,,,,,,,1.2,0.9,0.8,2*38
$GNVTG,266.3,T,266.3,M,66.1,N,122.4,K,A*09
$GNRMC,130826.00,A,4820.068421,N,01422.278556,E,66.1,266.3,280419,1.2,E,A*19
