$GPGGA,153839.00,4822.99999,N,01430.99999,E,1,07,1.15,480.9,M,45.2,M,,*5D
$GPGSA,A,3,23,24,20,04,25,11,01,,,,,,1.88,1.15,1.49,4,5,X*0D
$GPGSV,3,1,11,23,83,193,44,24,69,268,43,20,62,085,41,13,46,226,30*ZZ
$GPGSV,3,2,11,04,31,308,50,25,27,050,48,17,22,248,29,11,21,162,40*7A
$GPGSV,3,3,11,01,13,051,38,02,03,319,,02,03,319,*45
$GPGLL,4822.11583,N,01430.89050,E,153839.00,A,A*6C
$GPZDA,153839.00,20,03,2006,00,00*66
$GPRMC,153840.00,A,4822.11558,N,01430.89046,E,0.167,327.53,200306,,,A*63
$GPVTG,327.53,T,,M,0.167,N,0.310,K,A*3F
$GPGGA,153840.00,4822.11558,N,01430.89046,E,1,07,1.15,481.0,M,45.2,M,,*5A
$GPGSA,A,3,23,24,20,04,25,11,01,,,,,,1$GPGSV,3,1,11,23,83,193,44,24,69,268,43,20,62,085,41,13,46,226,30*73
$GPGSV,3,2,11,04,31,308,50,25,27,050,48,17,22,248,29,11,21,162,40*7A
$GPGSV,3,3,11,01,13,051,37,02,03,319,,02,03,319,*4A
$GPGLL,4822.11558,N,01430.89046,E,153840.00,A,A*63
$GPZDA,153840.00,20,03,2006,00,00*68
$GPRMC,153841.00,A,4822.11531,N,01430.89035,E,0.240,317.05,200306,,,A*6F
$GPVTG,317.05,T,,M,0.240,N,0.445,K,A*3E
$GPGGA,153841.00,18022.11531,N,28030.89035,E,1,256,1.15,480.9,M,45.2,M,,*58
$GPGSA,A,3,23,24,20,04,25,11,01,,,,,,1.88,1.15,1.49*0D
$GPGSV,3,1,11,23,83,193,44,24,69,268,43,20,62,085,41,13,46,226,30*73
$GPGSV,3,2,11,04,31,308,50,25,27,050,48,17,22,248,28,11,21,162,39*75
$GPGSV,3,3,11,01,13,051,37,02,03,319,,02,03,319,*4A
$GPGSV,3,4,11,01,13,051,37,02,03,319,,02,03,319,*4A
$GPGLL,4822.11531,N,01430.89035,E,153841.00,A,A*69
$GPZDA,153841.00,20,03,2006,00,00*69
$GPRMC,153842.00,A,4822.11506,N,01430.89016,E,0.185,313.04,200306,,,A*66
$GPVTG,313.04,T,,M,0.185,N,0.342,K,A*31
$GPGGA,153842.00,4822.11506,N,01430.89016,E,
$GPGSA,A,3,23,24,20,04,25,11,01,,
$GPGSV,3,1,11,23,83,193,43,24,69,268,43,20,62,085,4
$GPGSV,3,2,11,04,31,308,50,25,27,050,48,17,22,248,29,11,21,
$GPGLL,4822.11506,N,01430.89016,E,153842.00,A,A*6F
$GPZDA,153842.00,20,03,2006,00,00*6A
$GPRMC,153843.00,A,4822.11482,N,01430.88986,E,0.384,307.01,20
$GPVTG,307.01,T,,M,0.384,N,0.712,K,A*33
$GPGGA,153843.00,4822.11482,N,01430.88986,E,1,07,1.15,480.8,M,45.2,M,,*52
$GPGSA,A,3,23,24,20,04,25,11,01,,,,,,1.88,1.15,1.49*0D
$GPGSV,3,1,11,23,83,193,43,24,69,268,43,20,62,085,42,13,46,226,28*7E
$GPGSV,3,2,11,04,31,308,50,25,27,050,48,17,22,248,29,11,21,162,39*74
$GPGSV,3,3,11,01,13,051,37,02,03,319,,02,03,319,*4A
$GPGLL,4822.11482,N,01430.88986,E,153843.00,A,A*62
$GPZDA,153843.00,20,03,2006,00,00*6B
$GPRMC,153844.00,A,4822.11469,N,01430.88957,E,0.217,309.22,200306,,,A*62
$GPVTG,309.22,T,,M,0.217,N,0.402,K,A*35
$GPGGA,153844.00,4822.11469,N,01430.88957,E,1,07,1.15,480.7,M,45.2,M,,*53
$GPGSA,A,3,23,24,20,04,25,11,01,,,,,,1.88,1.15,1.49*0D
$GPGSV,3,1,11,23,83,193,43,24,69,268,43,20,62,085,42,13,46,226,27*71
$GPGSV,3,2,11,04,31,308,50,25,27,050,48,17,22,248,29,11,21,162,40*7A
$GPGSV,3,3,11,01,13,051,37,02,03,319,,02,03,319,*4A
$GPGLL,4822.11469,N,01430.88957,E,153844.00,A,A*6C
$GPZDA,153844.00,20,03,2006,00,00*6C
$GPRMC,153845.00,A,4822.11458,N,01430.88933,E,0.137,308.38,200306,,,A*68
$GPVTG,308.38,T,,M,0.137,N,0.254,K,A*3B
$GPGGA,153845.00,4822.11458,N,01430.88933,E,1,07,1.15,480.5,M,45.2,M,,*50
$GPGSA,A,3,23,24,20,04,25,11,01,,,,,,1.88,1.15,1.49*0D
$GPGSV,3,1,11,23,83,193,43,24,69,268,43,20,62,085,42,13,46,226,27*71
$GPGSV,3,2,11,04,31,308,50,25,27,050,48,17,22,248,29,11,21,162,39*74
$GPGSV,3,3,11,01,13,051,37,02,03,319,,02,03,319,*4A
$GPGLL,4822.11458,N,01430.88933,E,153845.00,A,A*6D
$GPZDA,153845.00,20,03,2006,00,00*6D
$GPRMC,153846.00,A,4822.11450,N,01430.88911,E,0.004,308.38,200306,,,A*62
$GPVTG,308.38,T,,M,0.004,N,0.008,K,A*31
$GPGGGA,153846.00,4822.11450,N,01430.88911,E,1,07,1.15,480.3,M,45.2,M,,*5D
$GsdPGSA,A,3,23,24,20,04,25,11,01,,,,,,1.88,1.15,1.49*0D
$GPGSV,3,1,11,23,83,193,43,24,69,268,43,20,62,085,42,13,46,226,24*72
$GPasGSV,3,2,11,04,31,308,50,25,27,050,48,17,22,248,29,11,21,162,39*74
$GPGSV,3,3,11,01,13,051,37,02,03,319,,02,03,319,*4A
$GPGLL,4822.11450,N,01430.88911,E,153846.00,A,A*66
$GPZDA,153846.00,20,03,2006,00,00*6E
$GPRMC,153847.00,A,4822.11443,N,01430.88890,E,0.150,307.53,200306,,,A*6B
$GPVTG,307.53,T,,M,0.150,N,0.278,K,A*36
$GPGGA,153847.00,4822.11443,N,01430.88890,E,1,07,1.15,480.1,M,45.2,M,,*54
$GPGSA,A,3,23,24,20,04,25,11,01,,,,,,1.87,1.15,1.48*03
$GPGSV,3,1,11,23,83,193,42,24,69,268,43,20,62,085,42,13,46,226,24*73
$GPGSV,3,2,11,04,31,308,50,25,27,050,48,17,22,248,29,11,21,162,39*74
$GPGSV,3,3,11,01,13,051,37,02,03,319,,02,03,319,*4A
$GPGLL,4822.11443,N,01430.88890,E,153847.00,A,A*6D
$GPZDA,153847.00,20,03,2006,00,00*6F
$GPRMC,153848.00,A,4822.11433,N,01430.88870,E,0.003,307.53,200306,,,A*6A
$GPVTG,307.53,T,,M,0.003,N,0.006,K,A*3A
$GPGGA,153848.00,4822.11433,N,01430.88870,E,1,07,1.15,479.9,M,45.2,M,,*5C
$GPGSA,A,3,23,24,20,04,25,11,01,,,,,,1.88,1.15,1.49*0D
$GPGSV,3,1,11,23,83,193,43,24,69,268,43,20,62,085,42,13,46,226,23*75
$GPGSV,3,2,11,04,31,308,50,25,27,050,48,17,22,248,29,11,21,162,39*74
$GPGSV,3,3,11,01,13,051,37,02,03,319,,02,03,319,*4A
$GPGLL,4822.11433,N,01430.88870,E,153848.00,A,A*6B
$GPZDA,153848.00,20,03,2006,00,00*60
$GPRMC,153849.00,A,4822.11426,N,01430.88853,E,0.004,307.53,200306,,,A*69
$GPVTG,307.53,T,,M,0.004,N,0.007,K,A*3C
