$GPGSV,3,1,12,07,08,322,25,08,24,295,29,10,45,157,24,13,04,029,36,1*68
$GPGSV,3,2,12,15,11,056,34,16,62,227,22,18,36,060,35,21,45,063,33,1*69
$GPGSV,3,3,12,27,57,300,31,11,02,265,,20,58,102,,26,37,187,,1*60
$GPGSV,1,1,0,8*5D
$GLGSV,3,1,09,66,27,126,29,82,33,285,32,80,35,303,32,79,34,233,22,1*78
$GLGSV,3,2,09,65,33,050,32,88,29,070,28,81,00,000,32,72,08,014,26,1*75
$GLGSV,3,3,09,78,01,194,,1*43
$GLGSV,1,1,0,3*4A
$GAGSV,2,1,08,02,30,309,34,04,14,126,20,11,77,303,17,12,40,067,22,7*72
$GAGSV,2,2,08,19,21,070,21,24,18,185,19,25,47,241,16,36,27,261,32,7*7F
$GAGSV,1,1,0,1*45
$GQGSV,1,1,01,193,03,037,37,1*6C
$GQGSV,1,1,0,8*5C
$GBGSV,4,1,16,35,00,000,36,34,00,000,44,25,23,296,37,24,23,237,28,1*74
$GBGSV,4,2,16,22,36,130,28,20,02,023,40,19,33,063,34,16,12,073,28,1*7F
$GBGSV,4,3,16,12,56,292,29,11,05,278,33,09,07,094,24,06,11,067,33,1*7E
$GBGSV,4,4,16,05,21,125,25,02,05,104,20,13,12,059,,21,06,174,,1*7C
$GBGSV,1,1,0,5*42
$GNGSA,A,3,07,08,10,15,16,18,21,27,,,,,0.9,0.5,0.7,1*38
$GNGSA,A,3,65,66,72,79,80,81,82,88,,,,,0.9,0.5,0.7,2*3A
$GNGSA,A,3,02,04,12,19,24,,,,,,,,0.9,0.5,0.7,3*33
$GNGSA,A,3,06,11,12,16,,,,,,,,,0.9,0.5,0.7,5*3C
$GNVTG,,T,,M,0.0,N,0.0,K,A*3D
$GPDTM,P90,,0000.000026,S,00000.000000,E,0.976,W84*4C
$GNRMC,151530.00,A,4821.346934,N,01423.078549,E,0.0,,140520,1.2,E,A,V*7E
$GNGNS,151530.00,4821.346934,N,01423.078549,E,A,25,0.5,472.8,44.9,,,V*61
$GNGGA,151530.00,4821.346934,N,01423.078549,E,1,12,0.5,472.8,M,44.9,M,,*74
$GPGSV,3,1,12,07,08,322,27,08,24,295,29,10,45,157,25,13,04,029,37,1*6A
$GPGSV,3,2,12,15,11,056,35,16,62,227,23,18,36,060,36,21,45,063,34,1*6D
$GPGSV,3,3,12,27,57,300,32,11,02,265,,20,58,102,,26,37,187,,1*63
$GPGSV,1,1,0,8*5D
$GLGSV,3,1,09,66,27,126,30,82,33,285,32,80,35,303,33,79,34,233,24,1*77
$GLGSV,3,2,09,65,33,050,33,88,29,070,28,81,00,000,34,72,08,014,26,1*72
$GLGSV,3,3,09,78,01,194,,1*43
$GLGSV,1,1,0,3*4A
$GAGSV,2,1,08,02,30,309,35,04,14,126,16,11,77,303,17,12,40,067,21,7*75
$GAGSV,2,2,08,19,21,070,21,24,18,185,16,25,47,241,16,36,27,261,33,7*71
$GAGSV,1,1,0,1*45
$GQGSV,1,1,01,193,03,037,37,1*6C
$GQGSV,1,1,0,8*5C
$GBGSV,4,1,16,35,00,000,36,34,00,000,44,25,23,296,37,24,23,237,29,1*75
$GBGSV,4,2,16,22,36,130,29,20,02,023,41,19,33,063,34,16,12,073,29,1*7E
$GBGSV,4,3,16,13,12,059,23,12,56,292,28,11,05,278,34,09,07,094,25,1*72
$GBGSV,4,4,16,06,11,067,33,05,21,125,25,02,05,104,20,21,06,174,,1*76
$GBGSV,1,1,0,5*42
$GNGSA,A,3,07,08,10,15,16,18,21,27,,,,,0.8,0.5,0.6,1*38
$GNGSA,A,3,65,66,72,79,80,81,82,88,,,,,0.8,0.5,0.6,2*3A
$GNGSA,A,3,02,04,11,12,19,24,,,,,,,0.8,0.5,0.6,3*33
$GNGSA,A,3,06,09,11,12,13,16,,,,,,,0.8,0.5,0.6,5*37
$GNVTG,,T,,M,0.0,N,0.0,K,A*3D
$GPDTM,P90,,0000.000026,S,00000.000000,E,0.976,W84*4C
$GNRMC,151531.00,A,4821.346572,N,01423.078603,E,0.0,,140520,1.2,E,A,V*7C
$GNGNS,151531.00,4821.346572,N,01423.078603,E,A,28,0.5,473.1,44.9,,,V*66
$GNGGA,151531.00,4821.346572,N,01423.078603,E,1,12,0.5,473.1,M,44.9,M,,*7E
$GPGSV,3,1,12,07,08,322,25,08,24,295,28,10,45,157,24,13,04,029,36,1*69
$GPGSV,3,2,12,15,11,056,34,16,62,227,21,18,36,060,36,21,45,063,33,1*69
$GPGSV,3,3,12,27,57,300,30,11,02,265,,20,58,102,,26,37,187,,1*61
$GPGSV,1,1,03,08,24,295,30,18,36,060,23,27,57,300,26,8*56
$GLGSV,3,1,09,66,27,126,28,82,33,285,32,80,35,303,31,79,34,233,22,1*7A
$GLGSV,3,2,09,65,33,050,32,88,29,070,28,81,00,000,32,72,08,014,26,1*75
$GLGSV,3,3,09,78,01,194,,1*43
$GLGSV,1,1,0,3*4A
$GAGSV,2,1,08,02,30,309,34,04,14,126,19,11,77,303,19,12,40,067,21,7*75
$GAGSV,2,2,08,19,21,070,21,24,18,185,16,25,47,241,16,36,27,261,33,7*71
$GAGSV,1,1,02,02,30,309,28,36,27,261,25,1*74
$GQGSV,1,1,01,193,03,037,36,1*6D
$GQGSV,1,1,01,193,03,037,28,8*6B
$GBGSV,4,1,16,35,00,000,36,34,00,000,43,25,23,296,36,24,23,237,27,1*7D
$GBGSV,4,2,16,22,36,130,27,20,02,023,40,19,33,063,35,16,12,073,28,1*71
$GBGSV,4,3,16,13,12,059,19,12,56,292,28,11,05,278,33,09,07,094,24,1*7D
$GBGSV,4,4,16,06,11,067,32,02,05,104,21,05,21,125,,21,06,174,,1*71
$GBGSV,1,1,0,5*42
$GNGSA,A,3,07,08,10,15,16,18,21,27,,,,,0.8,0.5,0.6,1*38
$GNGSA,A,3,65,66,72,79,80,81,82,88,,,,,0.8,0.5,0.6,2*3A
$GNGSA,A,3,02,04,11,12,19,24,,,,,,,0.8,0.5,0.6,3*33
$GNGSA,A,3,02,06,09,11,12,13,16,,,,,,0.8,0.5,0.6,5*35
$GNVTG,,T,,M,0.0,N,0.0,K,A*3D
$GPDTM,P90,,0000.000026,S,00000.000000,E,0.976,W84*4C
$GNRMC,151532.00,A,4821.346045,N,01423.078518,E,0.0,,140520,1.2,E,A,V*77
$GNGNS,151532.00,4821.346045,N,01423.078518,E,A,29,0.5,473.3,44.9,,,V*6E
$GNGGA,151532.00,4821.346045,N,01423.078518,E,1,12,0.5,473.3,M,44.9,M,,*77
$GPGSV,3,1,12,07,08,322,25,08,24,295,29,10,45,157,21,13,04,029,36,1*6D
$GPGSV,3,2,12,15,11,056,36,16,62,227,23,18,36,060,37,21,45,063,34,1*6F
$GPGSV,3,3,12,27,57,300,30,11,02,265,,20,58,102,,26,37,187,,1*61
$GPGSV,1,1,04,08,24,295,33,10,45,157,20,18,36,060,27,27,57,300,30,8*60
$GLGSV,3,1,09,66,27,126,30,82,33,285,32,80,35,303,31,79,34,233,23,1*72
$GLGSV,3,2,09,65,33,050,34,88,29,070,30,81,00,000,32,72,08,014,27,1*7B
$GLGSV,3,3,09,78,01,194,,1*43
$GLGSV,1,1,0,3*4A
$GAGSV,2,1,08,02,30,309,35,04,14,126,18,11,77,303,20,12,40,067,25,7*7B
$GAGSV,2,2,08,19,21,070,22,24,18,185,16,25,47,241,15,36,27,261,33,7*71
$GAGSV,2,1,06,02,30,309,33,04,14,126,22,12,40,067,23,19,21,070,21,1*77
$GAGSV,2,2,06,25,47,241,20,36,27,261,30,1*74
$GQGSV,1,1,01,193,03,037,37,1*6C
$GQGSV,1,1,01,193,03,037,31,8*63
$GBGSV,4,1,16,35,00,000,36,34,00,000,43,25,23,296,37,24,23,237,28,1*73
$GBGSV,4,2,16,22,36,130,31,20,02,023,41,19,33,063,36,16,12,073,30,1*7D
$GBGSV,4,3,16,13,12,059,21,12,56,292,28,11,05,278,34,09,07,094,24,1*71
$GBGSV,4,4,16,06,11,067,34,02,05,104,21,05,21,125,,21,06,174,,1*77
$GBGSV,1,1,0,5*42
$GNGSA,A,3,07,08,10,15,16,18,21,27,,,,,0.8,0.5,0.6,1*38
$GNGSA,A,3,65,66,72,79,80,81,82,88,,,,,0.8,0.5,0.6,2*3A
$GNGSA,A,3,02,04,11,12,19,24,,,,,,,0.8,0.5,0.6,3*33
$GNGSA,A,3,02,06,09,11,12,13,16,,,,,,0.8,0.5,0.6,5*35
$GNVTG,,T,,M,0.0,N,0.0,K,A*3D
$GPDTM,P90,,0000.000026,S,00000.000000,E,0.976,W84*4C
$GNRMC,151533.00,A,4821.345862,N,01423.078738,E,0.0,,140520,1.2,E,A,V*78
$GNGNS,151533.00,4821.345862,N,01423.078738,E,A,29,0.5,473.1,44.9,,,V*63
$GNGGA,151533.00,4821.345862,N,01423.078738,E,1,12,0.5,473.1,M,44.9,M,,*7A
$GPGSV,3,1,12,07,08,322,26,08,24,295,30,10,45,157,22,13,04,029,36,1*65
$GPGSV,3,2,12,15,11,056,35,16,62,227,23,18,36,060,38,20,58,102,22,1*6F
$GPGSV,3,3,12,21,45,063,33,27,57,300,31,11,02,265,,26,37,187,,1*6B
$GPGSV,1,1,04,08,24,295,34,10,45,157,23,18,36,060,29,27,57,300,32,8*68
$GLGSV,3,1,09,66,27,126,32,82,33,285,33,80,35,303,30,79,34,233,22,1*71
$GLGSV,3,2,09,65,33,050,35,88,29,070,33,81,00,000,32,72,08,014,27,1*79
$GLGSV,3,3,09,78,01,194,,1*43
$GLGSV,1,1,0,3*4A
$GAGSV,2,1,08,02,30,309,36,04,14,126,18,11,77,303,20,12,40,067,28,7*75
$GAGSV,2,2,08,19,21,070,23,24,18,185,17,25,47,241,15,36,27,261,32,7*70
$GAGSV,2,1,06,02,30,309,35,04,14,126,26,12,40,067,27,19,21,070,26,1*76
$GAGSV,2,2,06,25,47,241,24,36,27,261,31,1*71
$GQGSV,1,1,01,193,03,037,36,1*6D
$GQGSV,1,1,01,193,03,037,32,8*60
$GBGSV,4,1,16,35,00,000,38,34,00,000,43,25,23,296,37,24,23,237,28,1*7D
$GBGSV,4,2,16,22,36,130,33,20,02,023,40,19,33,063,36,16,12,073,30,1*7E
$GBGSV,4,3,16,13,12,059,23,12,56,292,28,11,05,278,35,09,07,094,24,1*72
$GBGSV,4,4,16,06,11,067,35,02,05,104,21,05,21,125,,21,06,174,,1*76
$GBGSV,1,1,0,5*42
$GNGSA,A,3,07,08,10,15,16,18,20,21,27,,,,0.8,0.5,0.6,1*3A
$GNGSA,A,3,65,66,72,79,80,81,82,88,,,,,0.8,0.5,0.6,2*3A
$GNGSA,A,3,02,04,11,12,19,24,25,,,,,,0.8,0.5,0.6,3*34
$GNGSA,A,3,02,06,09,11,12,13,16,,,,,,0.8,0.5,0.6,5*35
$GNVTG,,T,,M,0.0,N,0.0,K,A*3D
$GPDTM,P90,,0000.000026,S,00000.000000,E,0.976,W84*4C
$GNRMC,151534.00,A,4821.346102,N,01423.078783,E,0.0,,140520,1.2,E,A,V*73
$GNGNS,151534.00,4821.346102,N,01423.078783,E,A,31,0.5,473.7,44.9,,,V*67
$GNGGA,151534.00,4821.346102,N,01423.078783,E,1,12,0.5,473.7,M,44.9,M,,*77
$GPGSV,3,1,12,07,08,322,24,08,24,295,29,10,45,157,23,13,04,029,37,1*6F
$GPGSV,3,2,12,15,11,056,36,16,62,227,24,18,36,060,38,20,58,102,22,1*6B
$GPGSV,3,3,12,21,45,063,34,27,57,300,31,11,02,265,,26,37,187,,1*6C
$GPGSV,1,1,04,08,24,295,34,10,45,157,22,18,36,060,29,27,57,300,32,8*69
$GLGSV,3,1,09,66,27,126,31,82,33,285,33,80,35,303,30,79,34,233,22,1*72
$GLGSV,3,2,09,65,33,050,34,88,29,070,33,81,00,000,32,72,08,014,27,1*78
$GLGSV,3,3,09,78,01,194,,1*43
$GLGSV,1,1,0,3*4A
$GAGSV,2,1,08,02,30,309,36,04,14,126,16,11,77,303,20,12,40,067,28,7*7B
$GAGSV,2,2,08,19,21,070,21,24,18,185,18,25,47,241,15,36,27,261,32,7*7D
$GAGSV,2,1,07,02,30,309,35,04,14,126,26,11,77,303,17,12,40,067,26,1*78
$GAGSV,2,2,07,19,21,070,25,25,47,241,24,36,27,261,31,1*4B
$GQGSV,1,1,01,193,03,037,36,1*6D
$GQGSV,1,1,01,193,03,037,31,8*63
$GBGSV,4,1,16,35,00,000,37,34,00,000,43,25,23,296,37,24,23,237,29,1*73
$GBGSV,4,2,16,22,36,130,33,20,02,023,39,19,33,063,36,16,12,073,30,1*70
$GBGSV,4,3,16,13,12,059,22,12,56,292,28,11,05,278,34,09,07,094,21,1*77
$GBGSV,4,4,16,06,11,067,34,05,21,125,21,02,05,104,25,21,06,174,,1*70
$GBGSV,1,1,0,5*42
$GNGSA,A,3,07,08,10,15,16,18,20,21,27,,,,0.8,0.5,0.6,1*3A
$GNGSA,A,3,65,66,72,79,80,81,82,88,,,,,0.8,0.5,0.6,2*3A
$GNGSA,A,3,02,04,11,12,19,24,25,,,,,,0.8,0.5,0.6,3*34
$GNGSA,A,3,02,05,06,09,11,12,13,16,,,,,0.8,0.5,0.6,5*30
$GNVTG,,T,,M,0.0,N,0.0,K,A*3D
$GPDTM,P90,,0000.000026,S,00000.000000,E,0.976,W84*4C
$GNRMC,151535.00,A,4821.346060,N,01423.078923,E,0.0,,140520,1.2,E,A,V*73
$GNGNS,151535.00,4821.346060,N,01423.078923,E,A,32,0.5,473.9,44.9,,,V*6A
$GNGGA,151535.00,4821.346060,N,01423.078923,E,1,12,0.5,473.9,M,44.9,M,,*79
$GPGSV,3,1,12,07,08,322,24,08,24,295,29,10,45,157,23,13,04,029,37,1*6F
$GPGSV,3,2,12,15,11,056,35,16,62,227,25,18,36,060,37,21,45,063,35,1*6B
$GPGSV,3,3,12,26,37,187,14,27,57,300,32,11,02,265,,20,58,102,,1*66
$GPGSV,1,1,04,08,24,295,35,10,45,157,22,18,36,060,30,27,57,300,33,8*61
$GLGSV,3,1,09,66,27,126,31,82,33,285,32,80,35,303,32,79,34,233,23,1*70
$GLGSV,3,2,09,65,33,050,35,88,29,070,32,81,00,000,33,72,08,014,29,1*77
$GLGSV,3,3,09,78,01,194,,1*43
$GLGSV,1,1,0,3*4A
$GAGSV,2,1,08,02,30,309,36,04,14,126,20,11,77,303,17,12,40,067,27,7*75
$GAGSV,2,2,08,19,21,070,23,24,18,185,18,25,47,241,15,36,27,261,34,7*79
$GAGSV,2,1,07,02,30,309,35,04,14,126,25,11,77,303,19,12,40,067,27,1*74
$GAGSV,2,2,07,19,21,070,27,25,47,241,24,36,27,261,32,1*4A
$GQGSV,1,1,01,193,03,037,37,1*6C
$GQGSV,1,1,01,193,03,037,32,8*60
$GBGSV,4,1,16,35,00,000,37,34,00,000,43,25,23,296,36,24,23,237,30,1*7A
$GBGSV,4,2,16,22,36,130,32,20,02,023,40,19,33,063,37,16,12,073,30,1*7E
$GBGSV,4,3,16,13,12,059,20,12,56,292,27,11,05,278,34,09,07,094,22,1*79
$GBGSV,4,4,16,06,11,067,34,05,21,125,21,02,05,104,25,21,06,174,,1*70
$GBGSV,1,1,0,5*42
$GNGSA,A,3,07,08,10,15,16,18,20,21,27,,,,0.8,0.5,0.6,1*3A
$GNGSA,A,3,65,66,72,79,80,81,82,88,,,,,0.8,0.5,0.6,2*3A
$GNGSA,A,3,02,04,11,12,19,24,25,,,,,,0.8,0.5,0.6,3*34
$GNGSA,A,3,02,05,06,09,11,12,13,16,,,,,0.8,0.5,0.6,5*30
$GNVTG,,T,,M,0.0,N,0.0,K,A*3D
$GPDTM,P90,,0000.000026,S,00000.000000,E,0.976,W84*4C
$GNRMC,151536.00,A,4821.346102,N,01423.079002,E,0.0,,140520,1.2,E,A,V*7E
$GNGNS,151536.00,4821.346102,N,01423.079002,E,A,32,0.5,474.0,44.9,,,V*69
$GNGGA,151536.00,4821.346102,N,01423.079002,E,1,12,0.5,474.0,M,44.9,M,,*7A
$GPGSV,3,1,12,07,08,322,31,08,24,295,36,10,45,157,27,13,04,029,36,1*60
$GPGSV,3,2,12,15,11,056,30,16,62,227,24,18,36,060,30,20,58,102,25,1*62
$GPGSV,3,3,12,21,45,063,32,26,37,187,20,27,57,300,34,11,02,265,,1*6D
$GPGSV,2,1,05,08,24,295,35,10,45,157,21,18,36,060,27,26,37,187,21,8*6F
$GPGSV,2,2,05,27,57,300,29,8*57
$GLGSV,3,1,09,66,27,126,24,82,33,285,37,80,35,303,36,79,34,233,25,1*73
$GLGSV,3,2,09,65,33,050,32,88,29,070,29,81,00,000,28,72,08,014,34,1*7C
$GLGSV,3,3,09,78,01,194,,1*43
$GLGSV,1,1,0,3*4A
$GAGSV,2,1,08,02,30,309,31,04,14,126,25,11,77,303,17,12,40,067,24,7*74
$GAGSV,2,2,08,19,21,070,25,24,18,185,18,25,47,241,18,36,27,261,33,7*75
$GAGSV,2,1,07,02,30,309,26,04,14,126,20,11,77,303,19,12,40,067,21,1*75
$GAGSV,2,2,07,19,21,070,20,25,47,241,22,36,27,261,31,1*48
$GQGSV,1,1,01,193,03,037,36,1*6D
$GQGSV,1,1,01,193,03,037,29,8*6A
$GBGSV,4,1,16,35,00,000,29,34,00,000,39,25,23,296,30,24,23,237,26,1*79
$GBGSV,4,2,16,22,36,130,24,20,02,023,40,19,33,063,32,16,12,073,20,1*7D
$GBGSV,4,3,16,13,12,059,30,12,56,292,32,11,05,278,32,09,07,094,23,1*7B
$GBGSV,4,4,16,06,11,067,23,05,21,125,21,02,05,104,25,21,06,174,,1*76
$GBGSV,1,1,0,5*42
$GNGSA,A,3,07,08,10,15,16,18,20,21,26,27,,,0.8,0.5,0.6,1*3E
$GNGSA,A,3,65,66,72,79,80,81,82,88,,,,,0.8,0.5,0.6,2*3A
$GNGSA,A,3,02,04,11,12,19,25,,,,,,,0.8,0.5,0.6,3*32
$GNGSA,A,3,02,05,06,09,11,12,13,16,,,,,0.8,0.5,0.6,5*30
$GNVTG,,T,,M,0.0,N,0.0,K,A*3D
$GPDTM,P90,,0000.000026,S,00000.000000,E,0.976,W84*4C
$GNRMC,151537.00,A,4821.346000,N,01423.078888,E,0.0,,140520,1.2,E,A,V*77
$GNGNS,151537.00,4821.346000,N,01423.078888,E,A,32,0.5,474.1,44.9,,,V*61
$GNGGA,151537.00,4821.346000,N,01423.078888,E,1,12,0.5,474.1,M,44.9,M,,*72
$GPGSV,3,1,12,07,08,322,35,08,24,295,36,10,45,157,22,13,04,029,35,1*62
$GPGSV,3,2,12,15,11,056,34,16,62,227,24,18,36,060,32,20,58,102,23,1*62
$GPGSV,3,3,12,21,45,063,26,26,37,187,20,27,57,300,38,11,02,265,,1*64
$GPGSV,2,1,05,08,24,295,36,10,45,157,29,18,36,060,32,26,37,187,25,8*64
$GPGSV,2,2,05,27,57,300,37,8*58
$GLGSV,3,1,09,66,27,126,27,82,33,285,34,80,35,303,32,79,34,233,26,1*74
$GLGSV,3,2,09,65,33,050,30,88,29,070,34,81,00,000,33,72,08,014,33,1*7F
$GLGSV,3,3,09,78,01,194,,1*43
$GLGSV,1,1,0,3*4A
$GAGSV,2,1,08,02,30,309,38,04,14,126,25,11,77,303,20,12,40,067,25,7*78
$GAGSV,2,2,08,19,21,070,23,24,18,185,16,25,47,241,25,36,27,261,29,7*78
$GAGSV,2,1,07,02,30,309,37,04,14,126,26,11,77,303,22,12,40,067,25,1*7F
$GAGSV,2,2,07,19,21,070,21,25,47,241,22,36,27,261,35,1*4D
$GQGSV,1,1,01,193,03,037,33,1*68
$GQGSV,1,1,01,193,03,037,33,8*61
$GBGSV,4,1,16,35,00,000,27,34,00,000,38,25,23,296,39,24,23,237,26,1*7F
$GBGSV,4,2,16,22,36,130,23,20,02,023,38,19,33,063,32,16,12,073,22,1*77
$GBGSV,4,3,16,13,12,059,22,12,56,292,37,11,05,278,33,09,07,094,21,1*7E
$GBGSV,4,4,16,06,11,067,24,05,21,125,24,02,05,104,24,21,06,174,,1*75
$GBGSV,1,1,0,5*42
$GNGSA,A,3,07,08,10,15,16,18,20,21,26,27,,,0.8,0.5,0.6,1*3E
$GNGSA,A,3,65,66,72,79,80,81,82,88,,,,,0.8,0.5,0.6,2*3A
$GNGSA,A,3,02,04,11,12,19,25,,,,,,,0.8,0.5,0.6,3*32
$GNGSA,A,3,02,05,06,09,11,12,13,16,,,,,0.8,0.5,0.6,5*30
$GNVTG,,T,,M,0.0,N,0.0,K,A*3D
$GPDTM,P90,,0000.000026,S,00000.000000,E,0.976,W84*4C
$GNRMC,151538.00,A,4821.345744,N,01423.078799,E,0.0,,140520,1.2,E,A,V*73
$GNGNS,151538.00,4821.345744,N,01423.078799,E,A,32,0.5,474.4,44.9,,,V*60
$GNGGA,151538.00,4821.345744,N,01423.078799,E,1,12,0.5,474.4,M,44.9,M,,*73
$GPGSV,3,1,12,07,08,322,36,08,24,295,35,10,45,157,22,13,04,029,36,1*61
$GPGSV,3,2,12,15,11,056,23,16,62,227,24,18,36,060,22,20,58,102,23,1*65
$GPGSV,3,3,12,21,45,063,32,26,37,187,20,27,57,300,36,11,02,265,,1*6F
$GPGSV,2,1,05,08,24,295,35,10,45,157,28,18,36,060,24,26,37,187,25,8*61
$GPGSV,2,2,05,27,57,300,34,8*5B
$GLGSV,3,1,09,66,27,126,27,82,33,285,34,80,35,303,25,79,34,233,21,1*75
$GLGSV,3,2,09,65,33,050,26,88,29,070,34,81,00,000,29,72,08,014,20,1*71
$GLGSV,3,3,09,78,01,194,,1*43
$GLGSV,1,1,0,3*4A
$GAGSV,2,1,08,02,30,309,36,04,14,126,30,11,77,303,18,12,40,067,25,7*79
$GAGSV,2,2,08,19,21,070,23,24,18,185,16,25,47,241,20,36,27,261,30,7*75
$GAGSV,2,1,07,02,30,309,24,04,14,126,26,11,77,303,21,12,40,067,25,1*7E
$GAGSV,2,2,07,19,21,070,21,25,47,241,22,36,27,261,28,1*41
$GQGSV,1,1,01,193,03,037,27,1*6D
$GQGSV,1,1,01,193,03,037,25,8*66
$GBGSV,4,1,16,35,00,000,23,34,00,000,43,25,23,296,31,24,23,237,23,1*7A
$GBGSV,4,2,16,22,36,130,21,20,02,023,35,19,33,063,29,16,12,073,24,1*74
$GBGSV,4,3,16,13,12,059,18,12,56,292,30,11,05,278,36,09,07,094,21,1*75
$GBGSV,4,4,16,05,21,125,24,02,05,104,24,06,11,067,,21,06,174,,1*73
$GBGSV,1,1,0,5*42
$GNGSA,A,3,07,08,10,15,16,18,20,21,26,27,,,0.8,0.5,0.6,1*3E
$GNGSA,A,3,65,66,72,79,80,81,82,88,,,,,0.8,0.5,0.6,2*3A
$GNGSA,A,3,02,04,11,12,19,25,,,,,,,0.8,0.5,0.6,3*32
$GNGSA,A,3,02,05,06,09,11,12,13,16,,,,,0.8,0.5,0.6,5*30
$GNVTG,158.6,T,158.6,M,0.3,N,0.6,K,A*38
$GPDTM,P90,,0000.000026,S,00000.000000,E,0.976,W84*4C
$GNRMC,151539.00,A,4821.345339,N,01423.078678,E,0.3,158.6,140520,1.2,E,A,V*55
$GNGNS,151539.00,4821.345339,N,01423.078678,E,A,32,0.5,474.4,44.9,,,V*61
$GNGGA,151539.00,4821.345339,N,01423.078678,E,1,12,0.5,474.4,M,44.9,M,,*72
$GPGSV,3,1,12,07,08,322,36,08,24,295,31,10,45,157,23,13,04,029,34,1*66
$GPGSV,3,2,12,15,11,056,28,16,62,227,24,18,36,060,22,20,58,102,18,1*66
$GPGSV,3,3,12,21,45,063,30,26,37,187,20,27,57,300,34,11,02,265,,1*6F
$GPGSV,2,1,05,08,24,295,35,10,45,157,26,18,36,060,21,26,37,187,25,8*6A
$GPGSV,2,2,05,27,57,300,30,8*5F
$GLGSV,3,1,09,66,27,126,18,82,33,285,33,80,35,303,26,79,34,233,21,1*7D
$GLGSV,3,2,09,65,33,050,21,88,29,070,34,81,00,000,30,72,08,014,20,1*7E
$GLGSV,3,3,09,78,01,194,,1*43
$GLGSV,1,1,0,3*4A
$GAGSV,2,1,08,02,30,309,35,04,14,126,31,11,77,303,18,12,40,067,23,7*7D
$GAGSV,2,2,08,19,21,070,16,24,18,185,16,25,47,241,21,36,27,261,28,7*7B
$GAGSV,2,1,07,02,30,309,22,04,14,126,26,11,77,303,21,12,40,067,18,1*76
$GAGSV,2,2,07,19,21,070,21,25,47,241,22,36,27,261,28,1*41
$GQGSV,1,1,01,193,03,037,26,1*6C
$GQGSV,1,1,01,193,03,037,25,8*66
$GBGSV,4,1,16,35,00,000,26,34,00,000,40,25,23,296,27,24,23,237,19,1*72
$GBGSV,4,2,16,22,36,130,19,20,02,023,34,19,33,063,28,16,12,073,25,1*7E
$GBGSV,4,3,16,13,12,059,23,12,56,292,31,11,05,278,36,09,07,094,21,1*7C
$GBGSV,4,4,16,06,11,067,24,05,21,125,24,02,05,104,24,21,06,174,,1*75
$GBGSV,1,1,0,5*42
$GNGSA,A,3,07,08,10,15,16,18,20,21,26,27,,,0.8,0.5,0.6,1*3E
$GNGSA,A,3,65,66,72,79,80,81,82,88,,,,,0.8,0.5,0.6,2*3A
$GNGSA,A,3,02,04,11,12,19,25,,,,,,,0.8,0.5,0.6,3*32
$GNGSA,A,3,02,05,06,09,11,12,13,16,,,,,0.8,0.5,0.6,5*30
$GNVTG,,T,,M,0.0,N,0.0,K,A*3D
$GPDTM,P90,,0000.000026,S,00000.000000,E,0.976,W84*4C
$GNRMC,151540.00,A,4821.345449,N,01423.078509,E,0.0,,140520,1.2,E,A,V*79
$GNGNS,151540.00,4821.345449,N,01423.078509,E,A,32,0.5,474.9,44.9,,,V*67
$GNGGA,151540.00,4821.345449,N,01423.078509,E,1,12,0.5,474.9,M,44.9,M,,*74
$GPGSV,3,1,12,07,08,322,36,08,24,295,29,10,45,157,25,13,04,029,35,1*68
$GPGSV,3,2,12,15,11,056,30,16,62,227,24,18,36,060,28,20,58,102,26,1*68
$GPGSV,3,3,12,21,45,063,28,26,37,187,14,27,57,300,34,11,02,265,,1*61
$GPGSV,2,1,05,08,24,295,39,10,45,157,26,18,36,060,24,26,37,187,25,8*63
$GPGSV,2,2,05,27,57,300,31,8*5E
$GLGSV,3,1,09,66,27,126,23,82,33,285,34,80,35,303,28,79,34,233,21,1*7C
$GLGSV,3,2,09,65,33,050,21,88,29,070,33,81,00,000,30,72,08,014,20,1*79
$GLGSV,3,3,09,78,01,194,,1*43
$GLGSV,1,1,0,3*4A
$GAGSV,2,1,08,02,30,309,36,04,14,126,31,11,77,303,18,12,40,067,19,7*77
$GAGSV,2,2,08,19,21,070,16,24,18,185,16,25,47,241,22,36,27,261,27,7*77
$GAGSV,2,1,07,02,30,309,20,04,14,126,25,11,77,303,17,12,40,067,23,1*7A
$GAGSV,2,2,07,19,21,070,24,25,47,241,17,36,27,261,29,1*43
$GQGSV,1,1,01,193,03,037,26,1*6C
$GQGSV,1,1,01,193,03,037,26,8*65
$GBGSV,4,1,16,35,00,000,29,34,00,000,37,25,23,296,25,24,23,237,22,1*77
$GBGSV,4,2,16,22,36,130,25,20,02,023,33,19,33,063,25,16,12,073,25,1*7B
$GBGSV,4,3,16,13,12,059,23,12,56,292,31,11,05,278,36,06,11,067,24,1*7D
$GBGSV,4,4,16,05,21,125,25,02,05,104,24,09,07,094,,21,06,174,,1*76
$GBGSV,1,1,0,5*42
$GNGSA,A,3,07,08,10,15,16,18,20,21,26,27,,,0.8,0.5,0.6,1*3E
$GNGSA,A,3,65,66,72,79,80,81,82,88,,,,,0.8,0.5,0.6,2*3A
$GNGSA,A,3,02,04,11,12,19,25,,,,,,,0.8,0.5,0.6,3*32
$GNGSA,A,3,02,05,06,09,11,12,13,16,,,,,0.8,0.5,0.6,5*30
$GNVTG,,T,,M,0.0,N,0.0,K,A*3D
$GPDTM,P90,,0000.000026,S,00000.000000,E,0.976,W84*4C
$GNRMC,151541.00,A,4821.345461,N,01423.078397,E,0.0,,140520,1.2,E,A,V*73
$GNGNS,151541.00,4821.345461,N,01423.078397,E,A,32,0.5,475.3,44.9,,,V*66
$GNGGA,151541.00,4821.345461,N,01423.078397,E,1,12,0.5,475.3,M,44.9,M,,*75
$GPGSV,3,1,12,07,08,322,37,08,24,295,29,10,45,157,27,13,04,029,34,1*6A
$GPGSV,3,2,12,15,11,056,27,16,62,227,24,18,36,060,30,20,58,102,26,1*67
$GPGSV,3,3,12,21,45,063,27,26,37,187,14,27,57,300,34,11,02,265,,1*6E
$GPGSV,2,1,05,08,24,295,38,10,45,157,26,18,36,060,22,26,37,187,25,8*64
$GPGSV,2,2,05,27,57,300,31,8*5E
$GLGSV,3,1,09,66,27,126,25,82,33,285,35,80,35,303,27,79,34,233,21,1*74
$GLGSV,3,2,09,65,33,050,26,88,29,070,32,81,00,000,29,72,08,014,18,1*7C
$GLGSV,3,3,09,78,01,194,,1*43
$GLGSV,1,1,0,3*4A
$GAGSV,2,1,08,02,30,309,35,04,14,126,32,11,77,303,18,12,40,067,19,7*77
$GAGSV,2,2,08,19,21,070,18,24,18,185,16,25,47,241,21,36,27,261,26,7*7B
$GAGSV,2,1,07,02,30,309,21,04,14,126,26,11,77,303,17,12,40,067,21,1*7A
$GAGSV,2,2,07,19,21,070,23,25,47,241,17,36,27,261,29,1*44
$GQGSV,1,1,01,193,03,037,25,1*6F
$GQGSV,1,1,01,193,03,037,27,8*64
$GBGSV,4,1,16,35,00,000,24,34,00,000,37,25,23,296,28,24,23,237,24,1*71
$GBGSV,4,2,16,22,36,130,27,20,02,023,33,19,33,063,23,16,12,073,26,1*7C
$GBGSV,4,3,16,13,12,059,24,12,56,292,30,11,05,278,37,09,07,094,22,1*78
$GBGSV,4,4,16,06,11,067,24,05,21,125,25,02,05,104,24,21,06,174,,1*74
$GBGSV,1,1,0,5*42
$GNGSA,A,3,07,08,10,15,16,18,20,21,26,27,,,0.8,0.5,0.6,1*3E
$GNGSA,A,3,65,66,72,79,80,81,82,88,,,,,0.8,0.5,0.6,2*3A
$GNGSA,A,3,02,04,11,12,19,25,,,,,,,0.8,0.5,0.6,3*32
$GNGSA,A,3,02,05,06,09,11,12,13,16,,,,,0.8,0.5,0.6,5*30
$GNVTG,,T,,M,0.0,N,0.0,K,A*3D
$GPDTM,P90,,0000.000026,S,00000.000000,E,0.976,W84*4C
$GNRMC,151542.00,A,4821.345386,N,01423.078368,E,0.0,,140520,1.2,E,A,V*7E
$GNGNS,151542.00,4821.345386,N,01423.078368,E,A,32,0.5,475.6,44.9,,,V*6E
$GNGGA,151542.00,4821.345386,N,01423.078368,E,1,12,0.5,475.6,M,44.9,M,,*7D
$GPGSV,3,1,12,07,08,322,37,08,24,295,28,10,45,157,27,13,04,029,34,1*6B
$GPGSV,3,2,12,15,11,056,26,18,36,060,31,20,58,102,27,21,45,063,28,1*69
$GPGSV,3,3,12,26,37,187,17,27,57,300,34,11,02,265,,16,62,227,,1*6B
$GPGSV,2,1,05,08,24,295,39,10,45,157,27,18,36,060,24,26,37,187,25,8*62
$GPGSV,2,2,05,27,57,300,32,8*5D
$GLGSV,3,1,09,78,01,194,11,66,27,126,25,82,33,285,35,80,35,303,27,1*7E
$GLGSV,3,2,09,79,34,233,21,65,33,050,27,88,29,070,32,81,00,000,30,1*7C
$GLGSV,3,3,09,72,08,014,20,1*4B
$GLGSV,1,1,0,3*4A
$GAGSV,2,1,08,02,30,309,36,04,14,126,32,11,77,303,14,12,40,067,16,7*77
$GAGSV,2,2,08,19,21,070,18,24,18,185,16,25,47,241,22,36,27,261,26,7*78
$GAGSV,2,1,07,02,30,309,21,04,14,126,26,11,77,303,17,12,40,067,22,1*79
$GAGSV,2,2,07,19,21,070,24,25,47,241,17,36,27,261,29,1*43
$GQGSV,1,1,01,193,03,037,25,1*6F
$GQGSV,1,1,01,193,03,037,28,8*6B
$GBGSV,4,1,16,35,00,000,25,34,00,000,38,25,23,296,28,24,23,237,23,1*78
$GBGSV,4,2,16,22,36,130,27,20,02,023,33,19,33,063,24,16,12,073,26,1*7B
$GBGSV,4,3,16,13,12,059,23,12,56,292,31,11,05,278,37,09,07,094,23,1*7F
$GBGSV,4,4,16,06,11,067,25,05,21,125,25,02,05,104,24,21,06,174,,1*75
$GBGSV,1,1,0,5*42
$GNGSA,A,3,07,08,10,15,16,18,20,21,26,27,,,0.8,0.5,0.6,1*3E
$GNGSA,A,3,65,66,72,79,80,81,82,88,,,,,0.8,0.5,0.6,2*3A
$GNGSA,A,3,02,04,11,12,19,25,,,,,,,0.8,0.5,0.6,3*32
$GNGSA,A,3,02,05,06,09,11,12,13,16,,,,,0.8,0.5,0.6,5*30
$GNVTG,,T,,M,0.0,N,0.0,K,A*3D
$GPDTM,P90,,0000.000026,S,00000.000000,E,0.976,W84*4C
$GNRMC,151543.00,A,4821.345283,N,01423.078267,E,0.0,,140520,1.2,E,A,V*75
$GNGNS,151543.00,4821.345283,N,01423.078267,E,A,32,0.5,475.9,44.9,,,V*6A
$GNGGA,151543.00,4821.345283,N,01423.078267,E,1,12,0.5,475.9,M,44.9,M,,*79
$GPGSV,3,1,12,07,08,322,37,08,24,295,30,10,45,157,28,13,04,029,34,1*6D
$GPGSV,3,2,12,15,11,056,26,18,36,060,31,20,58,102,26,21,45,063,27,1*67
$GPGSV,3,3,12,26,37,187,18,27,57,300,35,11,02,265,,16,62,227,,1*65
$GPGSV,2,1,05,08,24,295,39,10,45,157,26,18,36,060,23,26,37,187,25,8*64
$GPGSV,2,2,05,27,57,300,32,8*5D
$GLGSV,3,1,09,78,01,194,11,66,27,126,24,82,33,285,36,80,35,303,27,1*7C
$GLGSV,3,2,09,79,34,233,21,65,33,050,27,88,29,070,32,81,00,000,30,1*7C
$GLGSV,3,3,09,72,08,014,21,1*4A
$GLGSV,1,1,0,3*4A
$GAGSV,2,1,08,02,30,309,36,04,14,126,31,11,77,303,14,12,40,067,18,7*7A
$GAGSV,2,2,08,19,21,070,19,24,18,185,16,25,47,241,21,36,27,261,27,7*7B
$GAGSV,2,1,07,02,30,309,22,04,14,126,26,11,77,303,19,12,40,067,22,1*74
$GAGSV,2,2,07,19,21,070,23,25,47,241,17,36,27,261,29,1*44
$GQGSV,1,1,01,193,03,037,26,1*6C
$GQGSV,1,1,01,193,03,037,27,8*64
$GBGSV,4,1,16,35,00,000,26,34,00,000,37,25,23,296,29,24,23,237,24,1*72
$GBGSV,4,2,16,22,36,130,27,20,02,023,33,19,33,063,23,16,12,073,27,1*7D
$GBGSV,4,3,16,13,12,059,24,12,56,292,31,11,05,278,37,09,07,094,22,1*79
$GBGSV,4,4,16,06,11,067,25,05,21,125,24,02,05,104,24,21,06,174,,1*74
$GBGSV,1,1,0,5*42
$GNGSA,A,3,07,08,10,15,18,20,21,27,,,,,0.8,0.5,0.6,1*3D
$GNGSA,A,3,65,66,72,79,80,81,82,88,,,,,0.8,0.5,0.6,2*3A
$GNGSA,A,3,02,04,11,12,19,25,,,,,,,0.8,0.5,0.6,3*32
$GNGSA,A,3,05,06,09,11,12,13,16,,,,,,0.8,0.5,0.6,5*32
$GNVTG,,T,,M,0.0,N,0.0,K,A*3D
$GPDTM,P90,,0000.000026,S,00000.000000,E,0.976,W84*4C
$GNRMC,151544.00,A,4821.345146,N,01423.078262,E,0.0,,140520,1.2,E,A,V*7D
$GNGNS,151544.00,4821.345146,N,01423.078262,E,A,29,0.5,475.9,44.9,,,V*68
$GNGGA,151544.00,4821.345146,N,01423.078262,E,1,12,0.5,475.9,M,44.9,M,,*71
$GPGSV,3,1,12,07,08,322,37,08,24,295,30,10,45,157,27,13,04,029,34,1*62
$GPGSV,3,2,12,15,11,056,28,18,36,060,30,20,58,102,26,21,45,063,27,1*68
$GPGSV,3,3,12,26,37,187,18,27,57,300,35,11,02,265,,16,62,227,,1*65
$GPGSV,2,1,05,08,24,295,40,10,45,157,26,18,36,060,24,26,37,187,25,8*6D
$GPGSV,2,2,05,27,57,300,32,8*5D
$GLGSV,3,1,09,78,01,194,11,66,27,126,24,82,33,285,36,80,35,303,28,1*73
$GLGSV,3,2,09,79,34,233,21,65,33,050,27,88,29,070,32,81,00,000,30,1*7C
$GLGSV,3,3,09,72,08,014,22,1*49
$GLGSV,1,1,0,3*4A
$GAGSV,2,1,08,02,30,309,36,04,14,126,32,11,77,303,14,12,40,067,18,7*79
$GAGSV,2,2,08,19,21,070,19,24,18,185,13,25,47,241,22,36,27,261,26,7*7C
$GAGSV,2,1,07,02,30,309,21,04,14,126,26,11,77,303,18,12,40,067,22,1*76
$GAGSV,2,2,07,19,21,070,24,25,47,241,17,36,27,261,29,1*43
$GQGSV,1,1,01,193,03,037,25,1*6F
$GQGSV,1,1,01,193,03,037,28,8*6B
$GBGSV,4,1,16,35,00,000,25,34,00,000,37,25,23,296,29,24,23,237,23,1*76
$GBGSV,4,2,16,22,36,130,27,20,02,023,33,19,33,063,24,16,12,073,27,1*7A
$GBGSV,4,3,16,13,12,059,23,12,56,292,31,11,05,278,37,09,07,094,22,1*7E
$GBGSV,4,4,16,06,11,067,25,05,21,125,24,02,05,104,24,21,06,174,,1*74
$GBGSV,1,1,0,5*42
$GNGSA,A,3,07,08,10,15,18,20,21,27,,,,,0.8,0.5,0.6,1*3D
$GNGSA,A,3,65,66,72,79,80,81,82,88,,,,,0.8,0.5,0.6,2*3A
$GNGSA,A,3,02,04,11,12,19,25,,,,,,,0.8,0.5,0.6,3*32
$GNGSA,A,3,05,06,09,11,12,13,16,,,,,,0.8,0.5,0.6,5*32
$GNVTG,,T,,M,0.0,N,0.0,K,A*3D
$GPDTM,P90,,0000.000026,S,00000.000000,E,0.976,W84*4C
$GNRMC,151545.00,A,4821.345077,N,01423.078288,E,0.0,,140520,1.2,E,A,V*7B
$GNGNS,151545.00,4821.345077,N,01423.078288,E,A,29,0.5,476.1,44.9,,,V*65
$GNGGA,151545.00,4821.345077,N,01423.078288,E,1,12,0.5,476.1,M,44.9,M,,*7C
$GPGSV,3,1,12,07,08,322,37,08,24,295,30,10,45,157,28,13,04,029,34,1*6D
$GPGSV,3,2,12,15,11,056,27,18,36,060,31,20,58,102,25,21,45,063,27,1*65
$GPGSV,3,3,12,26,37,187,18,27,57,300,35,11,02,265,,16,62,227,,1*65
$GPGSV,2,1,05,08,24,295,39,10,45,157,26,18,36,060,24,26,37,187,25,8*63
$GPGSV,2,2,05,27,57,300,32,8*5D
$GLGSV,3,1,09,78,01,194,11,66,27,126,24,82,33,285,36,80,35,303,27,1*7C
$GLGSV,3,2,09,79,34,233,21,65,33,050,27,88,29,070,31,81,00,000,30,1*7F
$GLGSV,3,3,09,72,08,014,21,1*4A
$GLGSV,1,1,0,3*4A
$GAGSV,2,1,08,02,30,309,36,04,14,126,32,11,77,303,14,12,40,067,18,7*79
$GAGSV,2,2,08,19,21,070,19,24,18,185,13,25,47,241,22,36,27,261,27,7*7D
$GAGSV,2,1,07,02,30,309,20,04,14,126,27,11,77,303,18,12,40,067,22,1*76
$GAGSV,2,2,07,19,21,070,24,25,47,241,19,36,27,261,29,1*4D
$GQGSV,1,1,01,193,03,037,25,1*6F
$GQGSV,1,1,01,193,03,037,28,8*6B
$GBGSV,4,1,16,35,00,000,25,34,00,000,37,25,23,296,28,24,23,237,23,1*77
$GBGSV,4,2,16,22,36,130,27,20,02,023,33,19,33,063,23,16,12,073,26,1*7C
$GBGSV,4,3,16,13,12,059,23,12,56,292,31,11,05,278,37,09,07,094,23,1*7F
$GBGSV,4,4,16,06,11,067,25,05,21,125,24,02,05,104,24,21,06,174,,1*74
$GBGSV,1,1,0,5*42
$GNGSA,A,3,07,08,10,15,18,20,21,27,,,,,0.9,0.6,0.6,1*3F
$GNGSA,A,3,65,66,72,80,81,82,88,,,,,,0.9,0.6,0.6,2*36
$GNGSA,A,3,02,04,11,12,19,,,,,,,,0.9,0.6,0.6,3*37
$GNGSA,A,3,05,06,09,11,12,13,16,,,,,,0.9,0.6,0.6,5*30
$GNVTG,,T,,M,0.0,N,0.0,K,A*3D
$GPDTM,P90,,0000.000026,S,00000.000000,E,0.976,W84*4C
$GNRMC,151546.00,A,4821.345070,N,01423.078312,E,0.0,,140520,1.2,E,A,V*7D
$GNGNS,151546.00,4821.345070,N,01423.078312,E,A,27,0.6,476.3,44.9,,,V*6C
$GNGGA,151546.00,4821.345070,N,01423.078312,E,1,12,0.6,476.3,M,44.9,M,,*7B
$GPGSV,3,1,12,07,08,322,37,08,24,295,30,10,45,157,27,13,04,029,34,1*62
$GPGSV,3,2,12,15,11,056,28,18,36,060,31,20,58,102,26,21,45,063,27,1*69
$GPGSV,3,3,12,26,37,187,19,27,57,300,35,11,02,265,,16,62,227,,1*64
$GPGSV,2,1,05,08,24,295,40,10,45,157,27,18,36,060,25,26,37,187,25,8*6D
$GPGSV,2,2,05,27,57,300,32,8*5D
$GLGSV,3,1,09,78,01,194,11,66,27,126,24,82,33,285,36,80,35,303,27,1*7C
$GLGSV,3,2,09,79,34,233,21,65,33,050,27,88,29,070,32,81,00,000,30,1*7C
$GLGSV,3,3,09,72,08,014,21,1*4A
$GLGSV,1,1,0,3*4A
$GAGSV,2,1,08,02,30,309,36,04,14,126,32,11,77,303,16,12,40,067,15,7*76
$GAGSV,2,2,08,19,21,070,17,24,18,185,13,25,47,241,22,36,27,261,26,7*72
$GAGSV,2,1,07,02,30,309,20,04,14,126,26,11,77,303,17,12,40,067,23,1*79
$GAGSV,2,2,07,19,21,070,23,25,47,241,19,36,27,261,30,1*42
$GQGSV,1,1,01,193,03,037,25,1*6F
$GQGSV,1,1,01,193,03,037,28,8*6B
$GBGSV,4,1,16,35,00,000,26,34,00,000,37,25,23,296,29,24,23,237,23,1*75
$GBGSV,4,2,16,22,36,130,27,20,02,023,33,19,33,063,22,16,12,073,26,1*7D
$GBGSV,4,3,16,13,12,059,23,12,56,292,31,11,05,278,37,09,07,094,23,1*7F
$GBGSV,4,4,16,06,11,067,26,05,21,125,25,02,05,104,24,21,06,174,,1*76
$GBGSV,1,1,0,5*42
$GNGSA,A,3,07,08,10,15,18,20,21,27,,,,,0.9,0.6,0.6,1*3F
$GNGSA,A,3,65,66,72,80,81,82,88,,,,,,0.9,0.6,0.6,2*36
$GNGSA,A,3,02,04,11,12,19,,,,,,,,0.9,0.6,0.6,3*37
$GNGSA,A,3,05,06,09,11,12,13,16,,,,,,0.9,0.6,0.6,5*30
$GNVTG,,T,,M,0.0,N,0.0,K,A*3D
$GPDTM,P90,,0000.000026,S,00000.000000,E,0.976,W84*4C
$GNRMC,151547.00,A,4821.345061,N,01423.078224,E,0.0,,140520,1.2,E,A,V*78
$GNGNS,151547.00,4821.345061,N,01423.078224,E,A,27,0.6,476.5,44.9,,,V*6F
$GNGGA,151547.00,4821.345061,N,01423.078224,E,1,12,0.6,476.5,M,44.9,M,,*78
$GPGSV,3,1,12,07,08,322,37,08,24,295,30,10,45,157,27,13,04,029,34,1*62
$GPGSV,3,2,12,15,11,056,28,18,36,060,31,20,58,102,25,21,45,063,28,1*65
$GPGSV,3,3,12,26,37,187,19,27,57,300,35,11,02,265,,16,62,227,,1*64
$GPGSV,2,1,05,08,24,295,39,10,45,157,26,18,36,060,22,26,37,187,25,8*65
$GPGSV,2,2,05,27,57,300,32,8*5D
$GLGSV,3,1,09,78,01,194,11,66,27,126,24,82,33,285,36,80,35,303,28,1*73
$GLGSV,3,2,09,79,34,233,21,65,33,050,27,88,29,070,32,81,00,000,30,1*7C
$GLGSV,3,3,09,72,08,014,22,1*49
$GLGSV,1,1,0,3*4A
$GAGSV,2,1,08,02,30,309,36,04,14,126,32,11,77,303,16,12,40,067,15,7*76
$GAGSV,2,2,08,19,21,070,19,24,18,185,13,25,47,241,21,36,27,261,26,7*7F
$GAGSV,2,1,07,02,30,309,22,04,14,126,26,11,77,303,19,12,40,067,23,1*75
$GAGSV,2,2,07,19,21,070,23,25,47,241,19,36,27,261,29,1*4A
$GQGSV,1,1,01,193,03,037,24,1*6E
$GQGSV,1,1,01,193,03,037,27,8*64
$GBGSV,4,1,16,35,00,000,25,34,00,000,37,25,23,296,29,24,23,237,23,1*76
$GBGSV,4,2,16,22,36,130,28,20,02,023,33,19,33,063,22,16,12,073,26,1*72
$GBGSV,4,3,16,13,12,059,23,12,56,292,31,11,05,278,37,09,07,094,22,1*7E
$GBGSV,4,4,16,06,11,067,25,05,21,125,25,02,05,104,24,21,06,174,,1*75
$GBGSV,1,1,0,5*42
$GNGSA,A,3,07,08,10,15,18,20,21,27,,,,,0.9,0.6,0.6,1*3F
$GNGSA,A,3,65,66,72,80,81,82,88,,,,,,0.9,0.6,0.6,2*36
$GNGSA,A,3,02,04,11,12,19,,,,,,,,0.9,0.6,0.6,3*37
$GNGSA,A,3,05,06,09,11,12,13,16,,,,,,0.9,0.6,0.6,5*30
$GNVTG,,T,,M,0.0,N,0.0,K,A*3D
$GPDTM,P90,,0000.000026,S,00000.000000,E,0.976,W84*4C
$GNRMC,151548.00,A,4821.344977,N,01423.078053,E,0.0,,140520,1.2,E,A,V*7A
$GNGNS,151548.00,4821.344977,N,01423.078053,E,A,27,0.6,476.6,44.9,,,V*6E
$GNGGA,151548.00,4821.344977,N,01423.078053,E,1,12,0.6,476.6,M,44.9,M,,*79
$GPGSV,3,1,12,07,08,322,37,08,24,295,30,10,45,157,26,13,04,029,34,1*63
$GPGSV,3,2,12,15,11,056,27,16,62,227,15,18,36,060,31,20,58,102,26,1*64
$GPGSV,3,3,12,21,45,063,27,26,37,187,16,27,57,300,35,11,02,265,,1*6D
$GPGSV,2,1,05,08,24,295,39,10,45,157,27,18,36,060,22,26,37,187,25,8*64
$GPGSV,2,2,05,27,57,300,32,8*5D
$GLGSV,3,1,09,78,01,194,11,66,27,126,25,82,33,285,36,80,35,303,27,1*7D
$GLGSV,3,2,09,79,34,233,21,65,33,050,27,88,29,070,32,81,00,000,31,1*7D
$GLGSV,3,3,09,72,08,014,22,1*49
$GLGSV,1,1,0,3*4A
$GAGSV,2,1,08,02,30,309,36,04,14,126,32,11,77,303,16,12,40,067,15,7*76
$GAGSV,2,2,08,19,21,070,19,24,18,185,13,25,47,241,22,36,27,261,27,7*7D
$GAGSV,2,1,07,02,30,309,20,04,14,126,27,11,77,303,19,12,40,067,23,1*76
$GAGSV,2,2,07,19,21,070,23,25,47,241,19,36,27,261,29,1*4A
$GQGSV,1,1,01,193,03,037,24,1*6E
$GQGSV,1,1,01,193,03,037,27,8*64
$GBGSV,4,1,16,35,00,000,26,34,00,000,37,25,23,296,29,24,23,237,23,1*75
$GBGSV,4,2,16,22,36,130,27,20,02,023,33,19,33,063,23,16,12,073,26,1*7C
$GBGSV,4,3,16,13,12,059,24,12,56,292,31,11,05,278,37,09,07,094,23,1*78
$GBGSV,4,4,16,06,11,067,24,05,21,125,25,02,05,104,24,21,06,174,,1*74
$GBGSV,1,1,0,5*42
$GNGSA,A,3,07,08,10,15,18,20,21,27,,,,,0.9,0.6,0.6,1*3F
$GNGSA,A,3,65,66,72,80,81,82,88,,,,,,0.9,0.6,0.6,2*36
$GNGSA,A,3,02,04,11,12,19,,,,,,,,0.9,0.6,0.6,3*37
$GNGSA,A,3,05,06,09,11,12,13,16,,,,,,0.9,0.6,0.6,5*30
$GNVTG,,T,,M,0.0,N,0.0,K,A*3D
$GPDTM,P90,,0000.000026,S,00000.000000,E,0.976,W84*4C
$GNRMC,151549.00,A,4821.344969,N,01423.078024,E,0.0,,140520,1.2,E,A,V*74
$GNGNS,151549.00,4821.344969,N,01423.078024,E,A,27,0.6,476.8,44.9,,,V*6E
$GNGGA,151549.00,4821.344969,N,01423.078024,E,1,12,0.6,476.8,M,44.9,M,,*79
$GPGSV,3,1,12,07,08,322,36,08,24,295,31,10,45,157,26,13,04,029,34,1*63
$GPGSV,3,2,12,15,11,056,26,16,62,227,15,18,36,060,30,20,58,102,27,1*65
$GPGSV,3,3,12,21,45,063,27,26,37,187,19,27,57,300,35,11,02,265,,1*62
$GPGSV,2,1,05,08,24,295,39,10,45,157,27,18,36,060,23,26,37,187,12,8*61
$GPGSV,2,2,05,27,57,300,32,8*5D
$GLGSV,3,1,09,78,01,194,11,66,27,126,24,82,33,285,36,80,35,303,28,1*73
$GLGSV,3,2,09,79,34,233,21,65,33,050,26,88,29,070,31,81,00,000,30,1*7E
$GLGSV,3,3,09,72,08,014,23,1*48
$GLGSV,1,1,0,3*4A
$GAGSV,2,1,08,02,30,309,36,04,14,126,32,11,77,303,16,12,40,067,15,7*76
$GAGSV,2,2,08,19,21,070,20,24,18,185,13,25,47,241,22,36,27,261,27,7*77
$GAGSV,2,1,07,02,30,309,20,04,14,126,26,11,77,303,17,12,40,067,23,1*79
$GAGSV,2,2,07,19,21,070,24,25,47,241,19,36,27,261,29,1*4D
$GQGSV,1,1,01,193,03,037,25,1*6F
$GQGSV,1,1,01,193,03,037,27,8*64
$GBGSV,4,1,16,35,00,000,26,34,00,000,37,25,23,296,30,24,23,237,23,1*7D
$GBGSV,4,2,16,22,36,130,27,20,02,023,33,19,33,063,24,16,12,073,27,1*7A
$GBGSV,4,3,16,13,12,059,24,12,56,292,31,11,05,278,37,09,07,094,22,1*79
$GBGSV,4,4,16,06,11,067,24,05,21,125,24,02,05,104,24,21,06,174,,1*75
$GBGSV,1,1,0,5*42
$GNGSA,A,3,07,08,10,15,18,20,21,27,,,,,0.9,0.6,0.6,1*3F
$GNGSA,A,3,65,66,72,80,81,82,88,,,,,,0.9,0.6,0.6,2*36
$GNGSA,A,3,02,04,11,12,19,,,,,,,,0.9,0.6,0.6,3*37
$GNGSA,A,3,05,06,09,11,12,13,16,,,,,,0.9,0.6,0.6,5*30
$GNVTG,,T,,M,0.0,N,0.0,K,A*3D
$GPDTM,P90,,0000.000026,S,00000.000000,E,0.976,W84*4C
$GNRMC,151550.00,A,4821.344966,N,01423.077915,E,0.0,,140520,1.2,E,A,V*77
$GNGNS,151550.00,4821.344966,N,01423.077915,E,A,27,0.6,476.7,44.9,,,V*62
$GNGGA,151550.00,4821.344966,N,01423.077915,E,1,12,0.6,476.7,M,44.9,M,,*75
$GPGSV,3,1,12,07,08,322,37,08,24,295,31,10,45,157,26,13,04,029,34,1*62
$GPGSV,3,2,12,15,11,056,26,16,62,227,15,18,36,060,29,20,58,102,27,1*6D
$GPGSV,3,3,12,21,45,063,28,26,37,187,18,27,57,300,35,11,02,265,,1*6C
$GPGSV,2,1,05,08,24,295,40,10,45,157,26,18,36,060,24,26,37,187,12,8*69
$GPGSV,2,2,05,27,57,300,32,8*5D
$GLGSV,3,1,09,78,01,194,11,66,27,126,25,82,33,285,36,80,35,303,28,1*72
$GLGSV,3,2,09,79,34,233,21,65,33,050,26,88,29,070,31,81,00,000,30,1*7E
$GLGSV,3,3,09,72,08,014,23,1*48
$GLGSV,1,1,0,3*4A
$GAGSV,2,1,08,02,30,309,35,04,14,126,32,11,77,303,16,12,40,067,15,7*75
$GAGSV,2,2,08,19,21,070,19,24,18,185,13,25,47,241,22,36,27,261,26,7*7C
$GAGSV,2,1,07,02,30,309,19,04,14,126,25,11,77,303,17,12,40,067,24,1*77
$GAGSV,2,2,07,19,21,070,24,25,47,241,18,36,27,261,29,1*4C
$GQGSV,1,1,01,193,03,037,26,1*6C
$GQGSV,1,1,01,193,03,037,28,8*6B
$GBGSV,4,1,16,35,00,000,26,34,00,000,37,25,23,296,30,24,23,237,23,1*7D
$GBGSV,4,2,16,22,36,130,27,20,02,023,33,19,33,063,25,16,12,073,26,1*7A
$GBGSV,4,3,16,13,12,059,24,12,56,292,31,11,05,278,37,09,07,094,21,1*7A
$GBGSV,4,4,16,06,11,067,25,05,21,125,24,02,05,104,24,21,06,174,,1*74
$GBGSV,1,1,0,5*42
$GNGSA,A,3,07,08,10,15,18,20,21,27,,,,,0.9,0.6,0.6,1*3F
$GNGSA,A,3,65,66,72,80,81,82,88,,,,,,0.9,0.6,0.6,2*36
$GNGSA,A,3,02,04,11,12,19,,,,,,,,0.9,0.6,0.6,3*37
$GNGSA,A,3,05,06,09,11,12,13,16,,,,,,0.9,0.6,0.6,5*30
$GNVTG,,T,,M,0.0,N,0.0,K,A*3D
$GPDTM,P90,,0000.000026,S,00000.000000,E,0.976,W84*4C
$GNRMC,151551.00,A,4821.344992,N,01423.077804,E,0.0,,140520,1.2,E,A,V*7C
$GNGNS,151551.00,4821.344992,N,01423.077804,E,A,27,0.6,476.7,44.9,,,V*69
$GNGGA,151551.00,4821.344992,N,01423.077804,E,1,12,0.6,476.7,M,44.9,M,,*7E
$GPGSV,3,1,12,07,08,322,37,08,24,295,31,10,45,157,27,13,04,029,35,1*62
$GPGSV,3,2,12,15,11,056,25,16,62,227,16,18,36,060,30,20,58,102,26,1*64
$GPGSV,3,3,12,21,45,063,28,26,37,187,18,27,57,300,35,11,02,265,,1*6C
$GPGSV,2,1,05,08,24,295,39,10,45,157,27,18,36,060,23,26,37,187,12,8*61
$GPGSV,2,2,05,27,57,300,32,8*5D
$GLGSV,3,1,09,78,01,194,11,66,27,126,25,82,33,285,36,80,35,303,27,1*7D
$GLGSV,3,2,09,79,34,233,21,65,33,050,26,88,29,070,32,81,00,000,30,1*7D
$GLGSV,3,3,09,72,08,014,22,1*49
$GLGSV,1,1,0,3*4A
$GAGSV,2,1,08,02,30,309,35,04,14,126,32,11,77,303,15,12,40,067,15,7*76
$GAGSV,2,2,08,19,21,070,19,24,18,185,13,25,47,241,22,36,27,261,26,7*7C
$GAGSV,2,1,07,02,30,309,21,04,14,126,27,11,77,303,17,12,40,067,24,1*7E
$GAGSV,2,2,07,19,21,070,24,25,47,241,18,36,27,261,30,1*44
$GQGSV,1,1,01,193,03,037,25,1*6F
$GQGSV,1,1,01,193,03,037,28,8*6B
$GBGSV,4,1,16,35,00,000,26,34,00,000,37,25,23,296,29,24,23,237,24,1*72
$GBGSV,4,2,16,22,36,130,28,20,02,023,33,19,33,063,25,16,12,073,26,1*75
$GBGSV,4,3,16,13,12,059,22,12,56,292,31,11,05,278,37,09,07,094,22,1*7F
$GBGSV,4,4,16,06,11,067,23,05,21,125,24,02,05,104,24,21,06,174,,1*72
$GBGSV,1,1,0,5*42
$GNGSA,A,3,07,08,10,15,18,20,21,27,,,,,0.9,0.6,0.6,1*3F
$GNGSA,A,3,65,66,72,80,81,82,88,,,,,,0.9,0.6,0.6,2*36
$GNGSA,A,3,02,04,11,12,19,,,,,,,,0.9,0.6,0.6,3*37
$GNGSA,A,3,05,06,09,11,12,13,16,,,,,,0.9,0.6,0.6,5*30
$GNVTG,,T,,M,0.0,N,0.0,K,A*3D
$GPDTM,P90,,0000.000026,S,00000.000000,E,0.976,W84*4C
$GNRMC,151552.00,A,4821.344837,N,01423.077526,E,0.0,,140520,1.2,E,A,V*7C
$GNGNS,151552.00,4821.344837,N,01423.077526,E,A,27,0.6,476.7,44.9,,,V*69
$GNGGA,151552.00,4821.344837,N,01423.077526,E,1,12,0.6,476.7,M,44.9,M,,*7E
$GPGSV,3,1,12,07,08,322,37,08,24,295,30,10,45,157,27,13,04,029,35,1*63
$GPGSV,3,2,12,15,11,056,25,16,62,227,16,18,36,060,29,20,58,102,26,1*6C
$GPGSV,3,3,12,21,45,063,26,26,37,187,17,27,57,300,35,11,02,265,,1*6D
$GPGSV,2,1,05,08,24,295,39,10,45,157,25,18,36,060,23,26,37,187,12,8*63
$GPGSV,2,2,05,27,57,300,32,8*5D
$GLGSV,3,1,09,78,01,194,11,66,27,126,24,82,33,285,36,80,35,303,28,1*73
$GLGSV,3,2,09,79,34,233,21,65,33,050,26,88,29,070,32,81,00,000,31,1*7C
$GLGSV,3,3,09,72,08,014,23,1*48
$GLGSV,1,1,0,3*4A
$GAGSV,2,1,08,02,30,309,35,04,14,126,32,11,77,303,15,12,40,067,13,7*70
$GAGSV,2,2,08,19,21,070,17,24,18,185,13,25,47,241,22,36,27,261,26,7*72
$GAGSV,2,1,07,02,30,309,20,04,14,126,25,11,77,303,17,12,40,067,22,1*7B
$GAGSV,2,2,07,19,21,070,24,25,47,241,17,36,27,261,28,1*42
$GQGSV,1,1,01,193,03,037,25,1*6F
$GQGSV,1,1,01,193,03,037,27,8*64
$GBGSV,4,1,16,35,00,000,26,34,00,000,37,25,23,296,29,24,23,237,23,1*75
$GBGSV,4,2,16,22,36,130,27,20,02,023,33,19,33,063,24,16,12,073,27,1*7A
$GBGSV,4,3,16,13,12,059,24,12,56,292,30,11,05,278,37,09,07,094,20,1*7A
$GBGSV,4,4,16,06,11,067,23,05,21,125,24,02,05,104,24,21,06,174,,1*72
$GBGSV,1,1,0,5*42
$GNGSA,A,3,07,08,10,15,18,20,21,27,,,,,0.9,0.6,0.6,1*3F
$GNGSA,A,3,65,66,72,80,81,82,88,,,,,,0.9,0.6,0.6,2*36
$GNGSA,A,3,02,04,11,12,19,,,,,,,,0.9,0.6,0.6,3*37
$GNGSA,A,3,05,06,09,11,12,13,16,,,,,,0.9,0.6,0.6,5*30
$GNVTG,,T,,M,0.0,N,0.0,K,A*3D
$GPDTM,P90,,0000.000026,S,00000.000000,E,0.976,W84*4C
$GNRMC,151553.00,A,4821.344755,N,01423.077324,E,0.0,,140520,1.2,E,A,V*72
$GNGNS,151553.00,4821.344755,N,01423.077324,E,A,27,0.6,476.7,44.9,,,V*67
$GNGGA,151553.00,4821.344755,N,01423.077324,E,1,12,0.6,476.7,M,44.9,M,,*70
$GPGSV,3,1,12,07,08,322,37,08,24,295,31,10,45,157,27,13,04,029,35,1*62
$GPGSV,3,2,12,15,11,056,26,16,62,227,16,18,36,060,30,20,58,102,26,1*67
$GPGSV,3,3,12,21,45,063,28,26,37,187,17,27,57,300,35,11,02,265,,1*63
$GPGSV,2,1,05,08,24,295,39,10,45,157,25,18,36,060,23,26,37,187,12,8*63
$GPGSV,2,2,05,27,57,300,31,8*5E
$GLGSV,3,1,09,78,01,194,11,66,27,126,25,82,33,285,36,80,35,303,28,1*72
$GLGSV,3,2,09,79,34,233,21,65,33,050,27,88,29,070,32,81,00,000,30,1*7C
$GLGSV,3,3,09,72,08,014,23,1*48
$GLGSV,1,1,0,3*4A
$GAGSV,2,1,08,02,30,309,36,04,14,126,32,11,77,303,15,12,40,067,13,7*73
$GAGSV,2,2,08,19,21,070,17,24,18,185,13,25,47,241,22,36,27,261,27,7*73
$GAGSV,2,1,07,02,30,309,20,04,14,126,25,11,77,303,17,12,40,067,22,1*7B
$GAGSV,2,2,07,19,21,070,24,25,47,241,17,36,27,261,28,1*42
$GQGSV,1,1,01,193,03,037,26,1*6C
$GQGSV,1,1,01,193,03,037,27,8*64
$GBGSV,4,1,16,35,00,000,26,34,00,000,37,25,23,296,29,24,23,237,23,1*75
$GBGSV,4,2,16,22,36,130,27,20,02,023,33,19,33,063,24,16,12,073,26,1*7B
$GBGSV,4,3,16,13,12,059,24,12,56,292,30,11,05,278,37,09,07,094,23,1*79
$GBGSV,4,4,16,06,11,067,24,05,21,125,24,02,05,104,24,21,06,174,,1*75
$GBGSV,1,1,0,5*42
$GNGSA,A,3,07,08,10,15,18,20,21,27,,,,,0.9,0.6,0.7,1*3E
$GNGSA,A,3,65,66,72,80,81,82,88,,,,,,0.9,0.6,0.7,2*37
$GNGSA,A,3,02,04,12,19,,,,,,,,,0.9,0.6,0.7,3*36
$GNGSA,A,3,05,06,09,11,12,13,16,,,,,,0.9,0.6,0.7,5*31
$GNVTG,,T,,M,0.0,N,0.0,K,A*3D
$GPDTM,P90,,0000.000026,S,00000.000000,E,0.976,W84*4C
$GNRMC,151554.00,A,4821.344736,N,01423.077298,E,0.0,,140520,1.2,E,A,V*76
$GNGNS,151554.00,4821.344736,N,01423.077298,E,A,26,0.6,476.8,44.9,,,V*6D
$GNGGA,151554.00,4821.344736,N,01423.077298,E,1,12,0.6,476.8,M,44.9,M,,*7B
$GPGSV,3,1,12,07,08,322,37,08,24,295,30,10,45,157,27,13,04,029,34,1*62
$GPGSV,3,2,12,15,11,056,27,16,62,227,15,18,36,060,30,20,58,102,26,1*65
$GPGSV,3,3,12,21,45,063,28,26,37,187,18,27,57,300,35,11,02,265,,1*6C
$GPGSV,2,1,05,08,24,295,40,10,45,157,26,18,36,060,24,26,37,187,12,8*69
$GPGSV,2,2,05,27,57,300,32,8*5D
$GLGSV,3,1,09,78,01,194,11,66,27,126,25,82,33,285,36,80,35,303,28,1*72
$GLGSV,3,2,09,79,34,233,21,65,33,050,26,88,29,070,32,81,00,000,30,1*7D
$GLGSV,3,3,09,72,08,014,22,1*49
$GLGSV,1,1,0,3*4A
$GAGSV,2,1,08,02,30,309,36,04,14,126,32,11,77,303,15,12,40,067,13,7*73
$GAGSV,2,2,08,19,21,070,16,24,18,185,13,25,47,241,22,36,27,261,26,7*73
$GAGSV,2,1,07,02,30,309,20,04,14,126,25,11,77,303,16,12,40,067,23,1*7B
$GAGSV,2,2,07,19,21,070,24,25,47,241,18,36,27,261,29,1*4C
$GQGSV,1,1,01,193,03,037,25,1*6F
$GQGSV,1,1,01,193,03,037,28,8*6B
$GBGSV,4,1,16,35,00,000,25,34,00,000,37,25,23,296,28,24,23,237,23,1*77
$GBGSV,4,2,16,22,36,130,27,20,02,023,33,19,33,063,24,16,12,073,27,1*7A
$GBGSV,4,3,16,13,12,059,25,12,56,292,30,11,05,278,37,09,07,094,21,1*7A
$GBGSV,4,4,16,06,11,067,25,05,21,125,24,02,05,104,24,21,06,174,,1*74
$GBGSV,1,1,0,5*42
$GNGSA,A,3,07,08,10,15,18,20,21,27,,,,,0.9,0.6,0.7,1*3E
$GNGSA,A,3,65,66,72,80,81,82,88,,,,,,0.9,0.6,0.7,2*37
$GNGSA,A,3,02,04,12,19,,,,,,,,,0.9,0.6,0.7,3*36
$GNGSA,A,3,05,06,09,11,12,13,16,,,,,,0.9,0.6,0.7,5*31
$GNVTG,,T,,M,0.0,N,0.0,K,A*3D
$GPDTM,P90,,0000.000026,S,00000.000000,E,0.976,W84*4C
$GNRMC,151555.00,A,4821.344762,N,01423.077329,E,0.0,,140520,1.2,E,A,V*7D
$GNGNS,151555.00,4821.344762,N,01423.077329,E,A,26,0.6,476.7,44.9,,,V*69
$GNGGA,151555.00,4821.344762,N,01423.077329,E,1,12,0.6,476.7,M,44.9,M,,*7F
$GPGSV,3,1,12,07,08,322,37,08,24,295,31,10,45,157,26,13,04,029,35,1*63
$GPGSV,3,2,12,15,11,056,28,16,62,227,15,18,36,060,30,20,58,102,27,1*6B
$GPGSV,3,3,12,21,45,063,27,26,37,187,18,27,57,300,35,11,02,265,,1*63
$GPGSV,2,1,05,08,24,295,39,10,45,157,26,18,36,060,23,26,37,187,12,8*60
$GPGSV,2,2,05,27,57,300,31,8*5E
$GLGSV,3,1,09,78,01,194,11,66,27,126,25,82,33,285,36,80,35,303,28,1*72
$GLGSV,3,2,09,79,34,233,21,65,33,050,26,88,29,070,31,81,00,000,30,1*7E
$GLGSV,3,3,09,72,08,014,21,1*4A
$GLGSV,1,1,0,3*4A
$GAGSV,2,1,08,02,30,309,36,04,14,126,32,11,77,303,15,12,40,067,13,7*73
$GAGSV,2,2,08,19,21,070,16,24,18,185,13,25,47,241,22,36,27,261,26,7*73
$GAGSV,2,1,07,02,30,309,21,04,14,126,25,11,77,303,16,12,40,067,23,1*7A
$GAGSV,2,2,07,19,21,070,23,25,47,241,18,36,27,261,29,1*4B
$GQGSV,1,1,01,193,03,037,26,1*6C
$GQGSV,1,1,01,193,03,037,27,8*64
$GBGSV,4,1,16,35,00,000,25,34,00,000,36,25,23,296,29,24,23,237,24,1*70
$GBGSV,4,2,16,22,36,130,27,20,02,023,33,19,33,063,24,16,12,073,27,1*7A
$GBGSV,4,3,16,13,12,059,25,12,56,292,30,11,05,278,37,09,07,094,21,1*7A
$GBGSV,4,4,16,06,11,067,25,05,21,125,24,02,05,104,24,21,06,174,,1*74
$GBGSV,1,1,0,5*42
$GNGSA,A,3,07,08,10,15,18,20,21,27,,,,,0.9,0.6,0.7,1*3E
$GNGSA,A,3,65,66,72,80,81,82,88,,,,,,0.9,0.6,0.7,2*37
$GNGSA,A,3,02,04,12,19,,,,,,,,,0.9,0.6,0.7,3*36
$GNGSA,A,3,05,06,09,11,12,13,16,,,,,,0.9,0.6,0.7,5*31
$GNVTG,,T,,M,0.0,N,0.0,K,A*3D
$GPDTM,P90,,0000.000026,S,00000.000000,E,0.976,W84*4C
$GNRMC,151556.00,A,4821.344669,N,01423.077202,E,0.0,,140520,1.2,E,A,V*7C
$GNGNS,151556.00,4821.344669,N,01423.077202,E,A,26,0.6,476.9,44.9,,,V*66
$GNGGA,151556.00,4821.344669,N,01423.077202,E,1,12,0.6,476.9,M,44.9,M,,*70
$GPGSV,3,1,12,07,08,322,37,08,24,295,31,10,45,157,26,13,04,029,35,1*63
$GPGSV,3,2,12,15,11,056,28,16,62,227,17,18,36,060,30,20,58,102,26,1*68
$GPGSV,3,3,12,21,45,063,28,26,37,187,18,27,57,300,35,11,02,265,,1*6C
$GPGSV,2,1,05,08,24,295,40,10,45,157,26,18,36,060,23,26,37,187,12,8*6E
$GPGSV,2,2,05,27,57,300,32,8*5D
$GLGSV,3,1,09,78,01,194,11,66,27,126,25,82,33,285,36,80,35,303,28,1*72
$GLGSV,3,2,09,79,34,233,21,65,33,050,27,88,29,070,32,81,00,000,29,1*74
$GLGSV,3,3,09,72,08,014,21,1*4A
$GLGSV,1,1,0,3*4A
$GAGSV,2,1,08,02,30,309,36,04,14,126,32,11,77,303,15,12,40,067,13,7*73
$GAGSV,2,2,08,19,21,070,18,24,18,185,13,25,47,241,22,36,27,261,26,7*7D
$GAGSV,2,1,07,02,30,309,21,04,14,126,24,11,77,303,16,12,40,067,23,1*7B
$GAGSV,2,2,07,19,21,070,24,25,47,241,17,36,27,261,29,1*43
$GQGSV,1,1,01,193,03,037,25,1*6F
$GQGSV,1,1,01,193,03,037,27,8*64
$GBGSV,4,1,16,35,00,000,25,34,00,000,37,25,23,296,29,24,23,237,24,1*71
$GBGSV,4,2,16,22,36,130,27,20,02,023,33,19,33,063,23,16,12,073,26,1*7C
$GBGSV,4,3,16,13,12,059,24,12,56,292,30,11,05,278,37,09,07,094,23,1*79
$GBGSV,4,4,16,06,11,067,25,05,21,125,24,02,05,104,24,21,06,174,,1*74
$GBGSV,1,1,0,5*42
$GNGSA,A,3,07,08,10,15,18,20,21,27,,,,,0.9,0.6,0.7,1*3E
$GNGSA,A,3,65,66,72,80,81,82,88,,,,,,0.9,0.6,0.7,2*37
$GNGSA,A,3,02,04,12,19,,,,,,,,,0.9,0.6,0.7,3*36
$GNGSA,A,3,05,06,09,11,12,13,16,,,,,,0.9,0.6,0.7,5*31
$GNVTG,,T,,M,0.0,N,0.0,K,A*3D
$GPDTM,P90,,0000.000026,S,00000.000000,E,0.976,W84*4C
$GNRMC,151557.00,A,4821.344606,N,01423.077135,E,0.0,,140520,1.2,E,A,V*73
$GNGNS,151557.00,4821.344606,N,01423.077135,E,A,26,0.6,477.1,44.9,,,V*60
$GNGGA,151557.00,4821.344606,N,01423.077135,E,1,12,0.6,477.1,M,44.9,M,,*76
$GPGSV,3,1,12,07,08,322,37,08,24,295,31,10,45,157,26,13,04,029,35,1*63
$GPGSV,3,2,12,15,11,056,28,16,62,227,17,18,36,060,29,20,58,102,27,1*61
$GPGSV,3,3,12,21,45,063,29,26,37,187,16,27,57,300,35,11,02,265,,1*63
$GPGSV,2,1,05,08,24,295,41,10,45,157,26,18,36,060,24,26,37,187,12,8*68
$GPGSV,2,2,05,27,57,300,33,8*5C
$GLGSV,3,1,09,78,01,194,11,66,27,126,25,82,33,285,36,80,35,303,28,1*72
$GLGSV,3,2,09,79,34,233,21,65,33,050,27,88,29,070,32,81,00,000,30,1*7C
$GLGSV,3,3,09,72,08,014,22,1*49
$GLGSV,1,1,0,3*4A
$GAGSV,2,1,08,02,30,309,36,04,14,126,32,11,77,303,15,12,40,067,13,7*73
$GAGSV,2,2,08,19,21,070,20,24,18,185,13,25,47,241,22,36,27,261,27,7*77
$GAGSV,2,1,07,02,30,309,21,04,14,126,23,11,77,303,15,12,40,067,23,1*7F
$GAGSV,2,2,07,19,21,070,24,25,47,241,19,36,27,261,29,1*4D
$GQGSV,1,1,01,193,03,037,26,1*6C
$GQGSV,1,1,01,193,03,037,28,8*6B
$GBGSV,4,1,16,35,00,000,26,34,00,000,37,25,23,296,30,24,23,237,24,1*7A
$GBGSV,4,2,16,22,36,130,26,20,02,023,33,19,33,063,23,16,12,073,27,1*7C
$GBGSV,4,3,16,13,12,059,25,12,56,292,30,11,05,278,37,09,07,094,23,1*78
$GBGSV,4,4,16,06,11,067,25,05,21,125,24,02,05,104,24,21,06,174,,1*74
$GBGSV,1,1,0,5*42
$GNGSA,A,3,07,08,10,15,18,20,21,27,,,,,0.9,0.6,0.7,1*3E
$GNGSA,A,3,65,66,72,80,81,82,88,,,,,,0.9,0.6,0.7,2*37
$GNGSA,A,3,02,04,12,19,,,,,,,,,0.9,0.6,0.7,3*36
$GNGSA,A,3,05,06,09,11,12,13,16,,,,,,0.9,0.6,0.7,5*31
$GNVTG,,T,,M,0.0,N,0.0,K,A*3D
$GPDTM,P90,,0000.000026,S,00000.000000,E,0.976,W84*4C
$GNRMC,151558.00,A,4821.344617,N,01423.077133,E,0.0,,140520,1.2,E,A,V*7A
$GNGNS,151558.00,4821.344617,N,01423.077133,E,A,26,0.6,477.1,44.9,,,V*69
$GNGGA,151558.00,4821.344617,N,01423.077133,E,1,12,0.6,477.1,M,44.9,M,,*7F
$GPGSV,3,1,12,07,08,322,37,08,24,295,32,10,45,157,27,13,04,029,35,1*61
$GPGSV,3,2,12,15,11,056,28,16,62,227,17,18,36,060,30,20,58,102,26,1*68
$GPGSV,3,3,12,21,45,063,28,26,37,187,16,27,57,300,35,11,02,265,,1*62
$GPGSV,2,1,05,08,24,295,41,10,45,157,25,18,36,060,23,26,37,187,12,8*6C
$GPGSV,2,2,05,27,57,300,33,8*5C
$GLGSV,3,1,09,78,01,194,11,66,27,126,26,82,33,285,36,80,35,303,28,1*71
$GLGSV,3,2,09,79,34,233,21,65,33,050,27,88,29,070,32,81,00,000,30,1*7C
$GLGSV,3,3,09,72,08,014,22,1*49
$GLGSV,1,1,0,3*4A
$GAGSV,2,1,08,02,30,309,36,04,14,126,32,11,77,303,16,12,40,067,13,7*70
$GAGSV,2,2,08,19,21,070,19,24,18,185,13,25,47,241,21,36,27,261,27,7*7E
$GAGSV,2,1,07,02,30,309,21,04,14,126,23,11,77,303,15,12,40,067,24,1*78
$GAGSV,2,2,07,19,21,070,24,25,47,241,18,36,27,261,29,1*4C
$GQGSV,1,1,01,193,03,037,25,1*6F
$GQGSV,1,1,01,193,03,037,28,8*6B
$GBGSV,4,1,16,35,00,000,26,34,00,000,36,25,23,296,30,24,23,237,24,1*7B
$GBGSV,4,2,16,22,36,130,27,20,02,023,33,19,33,063,25,16,12,073,26,1*7A
$GBGSV,4,3,16,13,12,059,24,12,56,292,30,11,05,278,37,09,07,094,23,1*79
$GBGSV,4,4,16,06,11,067,24,05,21,125,24,02,05,104,24,21,06,174,,1*75
$GBGSV,1,1,0,5*42
$GNGSA,A,3,07,08,10,15,18,20,21,27,,,,,0.9,0.6,0.7,1*3E
$GNGSA,A,3,65,66,72,80,81,82,88,,,,,,0.9,0.6,0.7,2*37
$GNGSA,A,3,02,04,12,19,,,,,,,,,0.9,0.6,0.7,3*36
$GNGSA,A,3,05,06,09,11,12,13,16,,,,,,0.9,0.6,0.7,5*31
$GNVTG,,T,,M,0.0,N,0.0,K,A*3D
$GPDTM,P90,,0000.000026,S,00000.000000,E,0.976,W84*4C
$GNRMC,151559.00,A,4821.344608,N,01423.077129,E,0.0,,140520,1.2,E,A,V*7E
$GNGNS,151559.00,4821.344608,N,01423.077129,E,A,26,0.6,477.2,44.9,,,V*6E
$GNGGA,151559.00,4821.344608,N,01423.077129,E,1,12,0.6,477.2,M,44.9,M,,*78
$GPGSV,3,1,12,07,08,322,37,08,24,295,31,10,45,157,27,13,04,029,35,1*62
$GPGSV,3,2,12,15,11,056,26,16,62,227,16,18,36,060,29,20,58,102,26,1*6F
$GPGSV,3,3,12,21,45,063,28,26,37,187,16,27,57,300,36,11,02,265,,1*61
$GPGSV,2,1,05,08,24,295,41,10,45,157,26,18,36,060,24,26,37,187,12,8*68
$GPGSV,2,2,05,27,57,300,33,8*5C
$GLGSV,3,1,09,78,01,194,11,66,27,126,26,82,33,285,36,80,35,303,28,1*71
$GLGSV,3,2,09,79,34,233,21,65,33,050,27,88,29,070,32,81,00,000,30,1*7C
$GLGSV,3,3,09,72,08,014,21,1*4A
$GLGSV,1,1,0,3*4A
$GAGSV,2,1,08,02,30,309,36,04,14,126,32,11,77,303,16,12,40,067,13,7*70
$GAGSV,2,2,08,19,21,070,18,24,18,185,13,25,47,241,21,36,27,261,26,7*7E
$GAGSV,2,1,07,02,30,309,21,04,14,126,23,11,77,303,17,12,40,067,24,1*7A
$GAGSV,2,2,07,19,21,070,24,25,47,241,18,36,27,261,30,1*44
$GQGSV,1,1,01,193,03,037,25,1*6F
$GQGSV,1,1,01,193,03,037,28,8*6B
$GBGSV,4,1,16,35,00,000,26,34,00,000,37,25,23,296,30,24,23,237,24,1*7A
$GBGSV,4,2,16,22,36,130,27,20,02,023,33,19,33,063,25,16,12,073,26,1*7A
$GBGSV,4,3,16,13,12,059,24,12,56,292,30,11,05,278,37,09,07,094,23,1*79
$GBGSV,4,4,16,06,11,067,24,05,21,125,24,02,05,104,24,21,06,174,,1*75
$GBGSV,1,1,0,5*42
$GNGSA,A,3,07,08,10,15,18,20,21,27,,,,,0.9,0.6,0.6,1*3F
$GNGSA,A,3,65,66,72,80,81,82,88,,,,,,0.9,0.6,0.6,2*36
$GNGSA,A,3,02,04,11,12,19,,,,,,,,0.9,0.6,0.6,3*37
$GNGSA,A,3,05,06,09,11,12,13,16,,,,,,0.9,0.6,0.6,5*30
$GNVTG,,T,,M,0.0,N,0.0,K,A*3D
$GPDTM,P90,,0000.000026,S,00000.000000,E,0.976,W84*4C
$GNRMC,151600.00,A,4821.344573,N,01423.077139,E,0.0,,140520,1.2,E,A,V*7F
$GNGNS,151600.00,4821.344573,N,01423.077139,E,A,27,0.6,477.1,44.9,,,V*6D
$GNGGA,151600.00,4821.344573,N,01423.077139,E,1,12,0.6,477.1,M,44.9,M,,*7A
$GPGSV,3,1,12,07,08,322,37,08,24,295,31,10,45,157,27,13,04,029,36,1*61
$GPGSV,3,2,12,15,11,056,27,16,62,227,16,18,36,060,31,20,58,102,24,1*65
$GPGSV,3,3,12,21,45,063,28,26,37,187,16,27,57,300,36,11,02,265,,1*61
$GPGSV,2,1,05,08,24,295,41,10,45,157,25,18,36,060,25,26,37,187,12,8*6A
$GPGSV,2,2,05,27,57,300,33,8*5C
$GLGSV,3,1,09,78,01,194,11,66,27,126,26,82,33,285,36,80,35,303,28,1*71
$GLGSV,3,2,09,79,34,233,21,65,33,050,27,88,29,070,32,81,00,000,30,1*7C
$GLGSV,3,3,09,72,08,014,23,1*48
$GLGSV,1,1,0,3*4A
$GAGSV,2,1,08,02,30,309,36,04,14,126,33,11,77,303,16,12,40,067,13,7*71
$GAGSV,2,2,08,19,21,070,18,24,18,185,13,25,47,241,23,36,27,261,26,7*7C
$GAGSV,2,1,07,02,30,309,22,04,14,126,24,11,77,303,17,12,40,067,23,1*79
$GAGSV,2,2,07,19,21,070,24,25,47,241,19,36,27,261,30,1*45
$GQGSV,1,1,01,193,03,037,25,1*6F
$GQGSV,1,1,01,193,03,037,28,8*6B
$GBGSV,4,1,16,35,00,000,27,34,00,000,37,25,23,296,30,24,23,237,23,1*7C
$GBGSV,4,2,16,22,36,130,28,20,02,023,33,19,33,063,24,16,12,073,26,1*74
$GBGSV,4,3,16,13,12,059,23,12,56,292,30,11,05,278,37,09,07,094,21,1*7C
$GBGSV,4,4,16,06,11,067,24,05,21,125,24,02,05,104,24,21,06,174,,1*75
$GBGSV,1,1,0,5*42
$GNGSA,A,3,07,08,10,15,18,20,21,27,,,,,0.9,0.6,0.6,1*3F
$GNGSA,A,3,65,66,72,80,81,82,88,,,,,,0.9,0.6,0.6,2*36
$GNGSA,A,3,02,04,11,12,19,,,,,,,,0.9,0.6,0.6,3*37
$GNGSA,A,3,05,06,09,11,12,13,16,,,,,,0.9,0.6,0.6,5*30
$GNVTG,,T,,M,0.0,N,0.0,K,A*3D
$GPDTM,P90,,0000.000026,S,00000.000000,E,0.976,W84*4C
$GNRMC,151601.00,A,4821.344568,N,01423.077150,E,0.0,,140520,1.2,E,A,V*7B
$GNGNS,151601.00,4821.344568,N,01423.077150,E,A,27,0.6,477.2,44.9,,,V*6A
$GNGGA,151601.00,4821.344568,N,01423.077150,E,1,12,0.6,477.2,M,44.9,M,,*7D
$GPGSV,3,1,12,07,08,322,37,08,24,295,31,10,45,157,28,13,04,029,35,1*6D
$GPGSV,3,2,12,15,11,056,27,18,36,060,30,20,58,102,25,21,45,063,27,1*64
$GPGSV,3,3,12,26,37,187,15,27,57,300,35,11,02,265,,16,62,227,,1*68
$GPGSV,2,1,05,08,24,295,41,10,45,157,26,18,36,060,24,26,37,187,12,8*68
$GPGSV,2,2,05,27,57,300,33,8*5C
$GLGSV,3,1,09,78,01,194,11,66,27,126,26,82,33,285,36,80,35,303,28,1*71
$GLGSV,3,2,09,79,34,233,21,65,33,050,28,88,29,070,31,81,00,000,30,1*70
$GLGSV,3,3,09,72,08,014,23,1*48
$GLGSV,1,1,0,3*4A
$GAGSV,2,1,08,02,30,309,36,04,14,126,33,11,77,303,15,12,40,067,13,7*72
$GAGSV,2,2,08,19,21,070,17,24,18,185,13,25,47,241,23,36,27,261,26,7*73
$GAGSV,2,1,07,02,30,309,21,04,14,126,23,11,77,303,18,12,40,067,24,1*75
$GAGSV,2,2,07,19,21,070,25,25,47,241,18,36,27,261,30,1*45
$GQGSV,1,1,01,193,03,037,25,1*6F
$GQGSV,1,1,01,193,03,037,28,8*6B
$GBGSV,4,1,16,35,00,000,26,34,00,000,37,25,23,296,30,24,23,237,23,1*7D
$GBGSV,4,2,16,22,36,130,28,20,02,023,33,19,33,063,24,16,12,073,25,1*77
$GBGSV,4,3,16,13,12,059,23,12,56,292,30,11,05,278,38,09,07,094,20,1*72
$GBGSV,4,4,16,06,11,067,24,05,21,125,25,02,05,104,,21,06,174,,1*72
$GBGSV,1,1,0,5*42
$GNGSA,A,3,07,08,10,15,18,20,21,27,,,,,0.9,0.6,0.6,1*3F
$GNGSA,A,3,65,66,72,80,81,82,88,,,,,,0.9,0.6,0.6,2*36
$GNGSA,A,3,02,04,11,12,19,,,,,,,,0.9,0.6,0.6,3*37
$GNGSA,A,3,05,06,09,11,12,13,16,,,,,,0.9,0.6,0.6,5*30
$GNVTG,,T,,M,0.0,N,0.0,K,A*3D
$GPDTM,P90,,0000.000026,S,00000.000000,E,0.976,W84*4C
$GNRMC,151602.00,A,4821.344562,N,01423.077168,E,0.0,,140520,1.2,E,A,V*79
$GNGNS,151602.00,4821.344562,N,01423.077168,E,A,27,0.6,477.1,44.9,,,V*6B
$GNGGA,151602.00,4821.344562,N,01423.077168,E,1,12,0.6,477.1,M,44.9,M,,*7C
$GPGSV,3,1,12,07,08,322,38,08,24,295,31,10,45,157,27,13,04,029,35,1*6D
$GPGSV,3,2,12,15,11,056,27,16,62,227,18,18,36,060,30,20,58,102,25,1*6B
$GPGSV,3,3,12,21,45,063,27,26,37,187,15,27,57,300,36,11,02,265,,1*6D
$GPGSV,2,1,05,08,24,295,41,10,45,157,25,18,36,060,24,26,37,187,12,8*6B
$GPGSV,2,2,05,27,57,300,33,8*5C
$GLGSV,2,1,08,66,27,126,26,82,33,285,36,80,35,303,28,79,34,233,21,1*7B
$GLGSV,2,2,08,65,33,050,28,88,29,070,31,81,00,000,30,72,08,014,23,1*71
$GLGSV,1,1,0,3*4A
$GAGSV,2,1,08,02,30,309,36,04,14,126,33,11,77,303,15,12,40,067,13,7*72
$GAGSV,2,2,08,19,21,070,17,24,18,185,13,25,47,241,23,36,27,261,26,7*73
$GAGSV,2,1,07,02,30,309,21,04,14,126,24,11,77,303,18,12,40,067,24,1*72
$GAGSV,2,2,07,19,21,070,24,25,47,241,18,36,27,261,30,1*44
$GQGSV,1,1,01,193,03,037,24,1*6E
$GQGSV,1,1,01,193,03,037,29,8*6A
$GBGSV,4,1,16,35,00,000,26,34,00,000,37,25,23,296,30,24,23,237,23,1*7D
$GBGSV,4,2,16,22,36,130,28,20,02,023,33,19,33,063,24,16,12,073,26,1*74
$GBGSV,4,3,16,13,12,059,24,12,56,292,30,11,05,278,38,09,07,094,22,1*77
$GBGSV,4,4,16,06,11,067,24,05,21,125,25,02,05,104,,21,06,174,,1*72
$GBGSV,1,1,0,5*42
$GNGSA,A,3,07,08,10,15,18,20,21,27,,,,,0.9,0.6,0.6,1*3F
$GNGSA,A,3,65,66,72,80,81,82,88,,,,,,0.9,0.6,0.6,2*36
$GNGSA,A,3,02,04,11,12,19,,,,,,,,0.9,0.6,0.6,3*37
$GNGSA,A,3,05,06,09,11,12,13,16,,,,,,0.9,0.6,0.6,5*30
$GNVTG,,T,,M,0.0,N,0.0,K,A*3D
$GPDTM,P90,,0000.000026,S,00000.000000,E,0.976,W84*4C
$GNRMC,151603.00,A,4821.344561,N,01423.077159,E,0.0,,140520,1.2,E,A,V*79
$GNGNS,151603.00,4821.344561,N,01423.077159,E,A,27,0.6,477.2,44.9,,,V*68
$GNGGA,151603.00,4821.344561,N,01423.077159,E,1,12,0.6,477.2,M,44.9,M,,*7F
$GPGSV,3,1,12,07,08,322,37,08,24,295,31,10,45,157,26,13,04,029,35,1*63
$GPGSV,3,2,12,15,11,056,26,16,62,227,20,18,36,060,30,20,58,102,26,1*62
$GPGSV,3,3,12,21,45,063,26,26,37,187,17,27,57,300,35,11,02,265,,1*6D
$GPGSV,2,1,05,08,24,295,41,10,45,157,25,18,36,060,24,26,37,187,12,8*6B
$GPGSV,2,2,05,27,57,300,33,8*5C
$GLGSV,2,1,08,66,27,126,26,82,33,285,36,80,35,303,28,65,33,050,27,1*70
$GLGSV,2,2,08,88,29,070,31,81,00,000,30,72,08,014,22,78,01,194,,1*7E
$GLGSV,1,1,0,3*4A
$GAGSV,2,1,08,02,30,309,36,04,14,126,32,11,77,303,15,12,40,067,13,7*73
$GAGSV,2,2,08,19,21,070,18,24,18,185,13,25,47,241,22,36,27,261,26,7*7D
$GAGSV,2,1,07,02,30,309,21,04,14,126,24,11,77,303,16,12,40,067,23,1*7B
$GAGSV,2,2,07,19,21,070,24,25,47,241,18,36,27,261,29,1*4C
$GQGSV,1,1,01,193,03,037,25,1*6F
$GQGSV,1,1,01,193,03,037,28,8*6B
$GBGSV,4,1,16,35,00,000,27,34,00,000,36,25,23,296,30,24,23,237,23,1*7D
$GBGSV,4,2,16,22,36,130,27,20,02,023,33,19,33,063,25,16,12,073,26,1*7A
$GBGSV,4,3,16,13,12,059,23,12,56,292,30,11,05,278,38,09,07,094,23,1*71
$GBGSV,4,4,16,06,11,067,25,05,21,125,25,02,05,104,,21,06,174,,1*73
$GBGSV,1,1,0,5*42
$GNGSA,A,3,07,08,10,15,18,20,21,27,,,,,0.9,0.6,0.6,1*3F
$GNGSA,A,3,65,66,72,80,81,82,88,,,,,,0.9,0.6,0.6,2*36
$GNGSA,A,3,02,04,11,12,19,,,,,,,,0.9,0.6,0.6,3*37
$GNGSA,A,3,05,06,09,11,12,13,16,,,,,,0.9,0.6,0.6,5*30
$GNVTG,,T,,M,0.0,N,0.0,K,A*3D
$GPDTM,P90,,0000.000026,S,00000.000000,E,0.976,W84*4C
$GNRMC,151604.00,A,4821.344560,N,01423.077156,E,0.0,,140520,1.2,E,A,V*70
$GNGNS,151604.00,4821.344560,N,01423.077156,E,A,27,0.6,477.1,44.9,,,V*62
$GNGGA,151604.00,4821.344560,N,01423.077156,E,1,12,0.6,477.1,M,44.9,M,,*75
$GPGSV,3,1,12,07,08,322,37,08,24,295,32,10,45,157,27,13,04,029,35,1*61
$GPGSV,3,2,12,15,11,056,27,16,62,227,18,18,36,060,31,20,58,102,26,1*69
$GPGSV,3,3,12,21,45,063,26,26,37,187,17,27,57,300,35,11,02,265,,1*6D
$GPGSV,2,1,05,08,24,295,41,10,45,157,26,18,36,060,24,26,37,187,12,8*68
$GPGSV,2,2,05,27,57,300,33,8*5C
$GLGSV,3,1,09,66,27,126,26,82,33,285,36,80,35,303,28,65,33,050,27,1*70
$GLGSV,3,2,09,88,29,070,31,81,00,000,30,72,08,014,22,78,01,194,,1*7E
$GLGSV,3,3,09,79,34,233,,1*4A
$GLGSV,1,1,0,3*4A
$GAGSV,2,1,08,02,30,309,36,04,14,126,33,11,77,303,15,12,40,067,12,7*73
$GAGSV,2,2,08,19,21,070,19,24,18,185,13,25,47,241,22,36,27,261,27,7*7D
$GAGSV,2,1,07,02,30,309,22,04,14,126,23,11,77,303,18,12,40,067,23,1*71
$GAGSV,2,2,07,19,21,070,24,25,47,241,20,36,27,261,29,1*47
$GQGSV,1,1,01,193,03,037,24,1*6E
$GQGSV,1,1,01,193,03,037,28,8*6B
$GBGSV,4,1,16,35,00,000,27,34,00,000,36,25,23,296,30,24,23,237,24,1*7A
$GBGSV,4,2,16,22,36,130,27,20,02,023,33,19,33,063,24,16,12,073,26,1*7B
$GBGSV,4,3,16,13,12,059,22,12,56,292,30,11,05,278,38,09,07,094,21,1*72
$GBGSV,4,4,16,06,11,067,23,05,21,125,25,02,05,104,,21,06,174,,1*75
$GBGSV,1,1,0,5*42
$GNGSA,A,3,07,08,10,15,18,20,21,27,,,,,0.9,0.6,0.6,1*3F
$GNGSA,A,3,65,66,72,80,81,82,88,,,,,,0.9,0.6,0.6,2*36
$GNGSA,A,3,02,04,11,12,19,,,,,,,,0.9,0.6,0.6,3*37
$GNGSA,A,3,05,06,09,11,12,13,16,,,,,,0.9,0.6,0.6,5*30
$GNVTG,,T,,M,0.0,N,0.0,K,A*3D
$GPDTM,P90,,0000.000026,S,00000.000000,E,0.976,W84*4C
$GNRMC,151605.00,A,4821.344560,N,01423.077157,E,0.0,,140520,1.2,E,A,V*70
$GNGNS,151605.00,4821.344560,N,01423.077157,E,A,27,0.6,477.1,44.9,,,V*62
$GNGGA,151605.00,4821.344560,N,01423.077157,E,1,12,0.6,477.1,M,44.9,M,,*75
$GPGSV,3,1,12,07,08,322,37,08,24,295,32,10,45,157,27,13,04,029,35,1*61
$GPGSV,3,2,12,15,11,056,27,16,62,227,19,18,36,060,30,20,58,102,27,1*68
$GPGSV,3,3,12,21,45,063,27,26,37,187,17,27,57,300,35,11,02,265,,1*6C
$GPGSV,2,1,05,08,24,295,41,10,45,157,26,18,36,060,23,26,37,187,14,8*69
$GPGSV,2,2,05,27,57,300,33,8*5C
$GLGSV,3,1,09,66,27,126,26,82,33,285,36,80,35,303,28,65,33,050,27,1*70
$GLGSV,3,2,09,88,29,070,31,81,00,000,30,72,08,014,21,78,01,194,,1*7D
$GLGSV,3,3,09,79,34,233,,1*4A
$GLGSV,1,1,0,3*4A
$GAGSV,2,1,08,02,30,309,36,04,14,126,33,11,77,303,15,12,40,067,12,7*73
$GAGSV,2,2,08,19,21,070,19,24,18,185,13,25,47,241,22,36,27,261,27,7*7D
$GAGSV,2,1,07,02,30,309,22,04,14,126,24,11,77,303,18,12,40,067,24,1*71
$GAGSV,2,2,07,19,21,070,24,25,47,241,19,36,27,261,30,1*45
$GQGSV,1,1,01,193,03,037,25,1*6F
$GQGSV,1,1,01,193,03,037,28,8*6B
$GBGSV,4,1,16,35,00,000,26,34,00,000,36,25,23,296,30,24,23,237,24,1*7B
